Suburb,Address,Rooms,Type,Price,SellerG,Date,Distance,Postcode,Bedroom,Bathroom,Car,Landsize,Latitude,Longitude,Regionname,Propertycount,geom,geom_suburb,suburb area
Abbotsford,85 Turner St,2,h,1480000.0,Biggin,3/12/2016,2.5,3067.0,2.0,1.0,1.0,202.0,-37.7996,144.9984,Northern Metropolitan,4019.0,POINT (144.9984 -37.7996),Yarra - North,0.0013635085488200602
Abbotsford,25 Bloomburg St,2,h,1035000.0,Biggin,4/02/2016,2.5,3067.0,2.0,1.0,0.0,156.0,-37.8079,144.9934,Northern Metropolitan,4019.0,POINT (144.9934 -37.8079),Yarra - North,0.0013635085488200602
Abbotsford,5 Charles St,3,h,1465000.0,Biggin,4/03/2017,2.5,3067.0,3.0,2.0,0.0,134.0,-37.8093,144.9944,Northern Metropolitan,4019.0,POINT (144.9944 -37.8093),Yarra - North,0.0013635085488200602
Abbotsford,40 Federation La,3,h,850000.0,Biggin,4/03/2017,2.5,3067.0,3.0,2.0,1.0,94.0,-37.7969,144.9969,Northern Metropolitan,4019.0,POINT (144.9969 -37.7969),Yarra - North,0.0013635085488200602
Abbotsford,55a Park St,4,h,1600000.0,Nelson,4/06/2016,2.5,3067.0,3.0,1.0,2.0,120.0,-37.8072,144.9941,Northern Metropolitan,4019.0,POINT (144.9941 -37.8072),Yarra - North,0.0013635085488200602
Abbotsford,129 Charles St,2,h,941000.0,Jellis,7/05/2016,2.5,3067.0,2.0,1.0,0.0,181.0,-37.8041,144.9953,Northern Metropolitan,4019.0,POINT (144.9953 -37.8041),Yarra - North,0.0013635085488200602
Abbotsford,124 Yarra St,3,h,1876000.0,Nelson,7/05/2016,2.5,3067.0,4.0,2.0,0.0,245.0,-37.8024,144.9993,Northern Metropolitan,4019.0,POINT (144.9993 -37.8024),Yarra - North,0.0013635085488200602
Abbotsford,98 Charles St,2,h,1636000.0,Nelson,8/10/2016,2.5,3067.0,2.0,1.0,2.0,256.0,-37.806,144.9954,Northern Metropolitan,4019.0,POINT (144.9954 -37.806),Yarra - North,0.0013635085488200602
Abbotsford,6/241 Nicholson St,1,u,300000.0,Biggin,8/10/2016,2.5,3067.0,1.0,1.0,1.0,0.0,-37.8008,144.9973,Northern Metropolitan,4019.0,POINT (144.9973 -37.8008),Yarra - North,0.0013635085488200602
Abbotsford,10 Valiant St,2,h,1097000.0,Biggin,8/10/2016,2.5,3067.0,3.0,1.0,2.0,220.0,-37.801,144.9989,Northern Metropolitan,4019.0,POINT (144.9989 -37.801),Yarra - North,0.0013635085488200602
Abbotsford,411/8 Grosvenor St,2,u,700000.0,Jellis,12/11/2016,2.5,3067.0,2.0,2.0,1.0,0.0,-37.811,145.0067,Northern Metropolitan,4019.0,POINT (145.0067 -37.811),Yarra - North,0.0013635085488200602
Abbotsford,40 Nicholson St,3,h,1350000.0,Nelson,12/11/2016,2.5,3067.0,3.0,2.0,2.0,214.0,-37.8085,144.9964,Northern Metropolitan,4019.0,POINT (144.9964 -37.8085),Yarra - North,0.0013635085488200602
Abbotsford,123/56 Nicholson St,2,u,750000.0,Biggin,12/11/2016,2.5,3067.0,2.0,2.0,1.0,0.0,-37.8078,144.9965,Northern Metropolitan,4019.0,POINT (144.9965 -37.8078),Yarra - North,0.0013635085488200602
Abbotsford,45 William St,2,h,1172500.0,Biggin,13/08/2016,2.5,3067.0,2.0,1.0,1.0,195.0,-37.8084,144.9973,Northern Metropolitan,4019.0,POINT (144.9973 -37.8084),Yarra - North,0.0013635085488200602
Abbotsford,7/20 Abbotsford St,1,u,441000.0,Greg,14/05/2016,2.5,3067.0,1.0,1.0,1.0,0.0,-37.8016,144.9988,Northern Metropolitan,4019.0,POINT (144.9988 -37.8016),Yarra - North,0.0013635085488200602
Abbotsford,16 William St,2,h,1310000.0,Jellis,15/10/2016,2.5,3067.0,2.0,1.0,2.0,238.0,-37.809,144.9976,Northern Metropolitan,4019.0,POINT (144.9976 -37.809),Yarra - North,0.0013635085488200602
Abbotsford,42 Henry St,3,h,1200000.0,Jellis,16/07/2016,2.5,3067.0,3.0,2.0,1.0,113.0,-37.8056,144.993,Northern Metropolitan,4019.0,POINT (144.993 -37.8056),Yarra - North,0.0013635085488200602
Abbotsford,78 Yarra St,3,h,1176500.0,LITTLE,16/07/2016,2.5,3067.0,2.0,1.0,1.0,138.0,-37.8021,144.9965,Northern Metropolitan,4019.0,POINT (144.9965 -37.8021),Yarra - North,0.0013635085488200602
Abbotsford,196 Nicholson St,3,h,955000.0,Collins,17/09/2016,2.5,3067.0,3.0,1.0,0.0,183.0,-37.8022,144.9975,Northern Metropolitan,4019.0,POINT (144.9975 -37.8022),Yarra - North,0.0013635085488200602
Abbotsford,42 Valiant St,2,h,890000.0,Biggin,17/09/2016,2.5,3067.0,2.0,1.0,1.0,150.0,-37.8011,145.0004,Northern Metropolitan,4019.0,POINT (145.0004 -37.8011),Yarra - North,0.0013635085488200602
Abbotsford,3/72 Charles St,4,h,1330000.0,Kay,18/03/2017,2.5,3067.0,4.0,2.0,2.0,780.0,-37.8073,144.9952,Northern Metropolitan,4019.0,POINT (144.9952 -37.8073),Yarra - North,0.0013635085488200602
Abbotsford,13/11 Nicholson St,3,t,900000.0,Beller,18/03/2017,2.5,3067.0,3.0,2.0,2.0,0.0,-37.8093,144.9959,Northern Metropolitan,4019.0,POINT (144.9959 -37.8093),Yarra - North,0.0013635085488200602
Abbotsford,138/56 Nicholson St,3,u,1090000.0,Jellis,18/03/2017,2.5,3067.0,3.0,2.0,2.0,4290.0,-37.8078,144.9965,Northern Metropolitan,4019.0,POINT (144.9965 -37.8078),Yarra - North,0.0013635085488200602
Abbotsford,6/219 Nicholson St,2,u,500000.0,Collins,18/06/2016,2.5,3067.0,2.0,1.0,1.0,0.0,-37.8015,144.9972,Northern Metropolitan,4019.0,POINT (144.9972 -37.8015),Yarra - North,0.0013635085488200602
Abbotsford,52a William St,2,h,1100000.0,Biggin,18/06/2016,2.5,3067.0,2.0,2.0,1.0,124.0,-37.8079,144.9977,Northern Metropolitan,4019.0,POINT (144.9977 -37.8079),Yarra - North,0.0013635085488200602
Abbotsford,49 Park St,2,h,1315000.0,Marshall,19/11/2016,2.5,3067.0,2.0,1.0,0.0,147.0,-37.808,144.994,Northern Metropolitan,4019.0,POINT (144.994 -37.808),Yarra - North,0.0013635085488200602
Abbotsford,5/20 Abbotsford St,1,u,426000.0,Greg,22/08/2016,2.5,3067.0,1.0,1.0,1.0,0.0,-37.8016,144.9988,Northern Metropolitan,4019.0,POINT (144.9988 -37.8016),Yarra - North,0.0013635085488200602
Abbotsford,48 Abbotsford St,3,h,1447500.0,Nelson,22/08/2016,2.5,3067.0,3.0,3.0,1.0,166.0,-37.8017,145.0001,Northern Metropolitan,4019.0,POINT (145.0001 -37.8017),Yarra - North,0.0013635085488200602
Abbotsford,116/56 Nicholson St,1,u,457000.0,Jellis,22/08/2016,2.5,3067.0,1.0,1.0,1.0,0.0,-37.8078,144.9965,Northern Metropolitan,4019.0,POINT (144.9965 -37.8078),Yarra - North,0.0013635085488200602
Abbotsford,159 Park St,2,h,1135000.0,Nelson,22/08/2016,2.5,3067.0,2.0,2.0,2.0,98.0,-37.8005,144.9952,Northern Metropolitan,4019.0,POINT (144.9952 -37.8005),Yarra - North,0.0013635085488200602
Abbotsford,31 Turner St,4,h,1542000.0,Collins,24/09/2016,2.5,3067.0,4.0,3.0,1.0,0.0,-37.7994,144.9965,Northern Metropolitan,4019.0,POINT (144.9965 -37.7994),Yarra - North,0.0013635085488200602
Abbotsford,166 Gipps St,3,h,1290000.0,Biggin,25/02/2017,2.5,3067.0,3.0,2.0,2.0,147.0,-37.805,144.9943,Northern Metropolitan,4019.0,POINT (144.9943 -37.805),Yarra - North,0.0013635085488200602
Abbotsford,60 Stafford St,3,h,1290000.0,Biggin,25/02/2017,2.5,3067.0,3.0,1.0,1.0,168.0,-37.8007,144.9958,Northern Metropolitan,4019.0,POINT (144.9958 -37.8007),Yarra - North,0.0013635085488200602
Abbotsford,11/205 Gipps St,1,u,470000.0,Nelson,26/07/2016,2.5,3067.0,1.0,1.0,1.0,0.0,-37.8055,144.9961,Northern Metropolitan,4019.0,POINT (144.9961 -37.8055),Yarra - North,0.0013635085488200602
Abbotsford,47 Studley St,2,h,1180000.0,Jellis,27/11/2016,2.5,3067.0,2.0,1.0,0.0,162.0,-37.8016,144.9956,Northern Metropolitan,4019.0,POINT (144.9956 -37.8016),Yarra - North,0.0013635085488200602
Abbotsford,45 Yarra St,3,h,1195000.0,Jellis,27/11/2016,2.5,3067.0,3.0,2.0,1.0,120.0,-37.8022,144.9954,Northern Metropolitan,4019.0,POINT (144.9954 -37.8022),Yarra - North,0.0013635085488200602
Abbotsford,200 Nicholson St,2,h,1012500.0,Nelson,28/05/2016,2.5,3067.0,2.0,1.0,0.0,182.0,-37.8021,144.9976,Northern Metropolitan,4019.0,POINT (144.9976 -37.8021),Yarra - North,0.0013635085488200602
Abbotsford,27 Charles St,2,h,1030000.0,Biggin,30/07/2016,2.5,3067.0,2.0,1.0,1.0,172.0,-37.8086,144.9946,Northern Metropolitan,4019.0,POINT (144.9946 -37.8086),Yarra - North,0.0013635085488200602
Airport West,154 Halsey Rd,3,t,840000.0,Nelson,3/09/2016,13.5,3042.0,3.0,2.0,1.0,303.0,-37.718,144.878,Western Metropolitan,3464.0,POINT (144.878 -37.718),Moonee Valley - West,0.002319174353032621
Airport West,50 Bedford St,3,h,730000.0,Nelson,3/12/2016,13.5,3042.0,3.0,2.0,1.0,0.0,-37.7203,144.8755,Western Metropolitan,3464.0,POINT (144.8755 -37.7203),Moonee Valley - West,0.002319174353032621
Airport West,50 Bedford St,3,h,770000.0,Nelson,4/03/2017,13.5,3042.0,3.0,2.0,1.0,0.0,-37.7203,144.8755,Western Metropolitan,3464.0,POINT (144.8755 -37.7203),Moonee Valley - West,0.002319174353032621
Airport West,23 Hart St,2,h,603000.0,Nelson,4/03/2017,13.5,3042.0,2.0,1.0,1.0,272.0,-37.7294,144.888,Western Metropolitan,3464.0,POINT (144.888 -37.7294),Moonee Valley - West,0.002319174353032621
Airport West,1/80 Hawker St,3,t,700000.0,Brad,4/03/2017,13.5,3042.0,3.0,2.0,2.0,239.0,-37.7218,144.8837,Western Metropolitan,3464.0,POINT (144.8837 -37.7218),Moonee Valley - West,0.002319174353032621
Airport West,1/37 Hillside Gr,3,h,600000.0,Maddison,4/03/2017,13.5,3042.0,2.0,1.0,1.0,290.0,-37.7273,144.8744,Western Metropolitan,3464.0,POINT (144.8744 -37.7273),Moonee Valley - West,0.002319174353032621
Airport West,2/49 McIntosh St,2,u,500000.0,Barry,4/03/2017,13.5,3042.0,2.0,1.0,1.0,168.0,-37.7215,144.8864,Western Metropolitan,3464.0,POINT (144.8864 -37.7215),Moonee Valley - West,0.002319174353032621
Airport West,54 Marshall Rd,3,h,720000.0,Barry,6/08/2016,13.5,3042.0,2.0,1.0,1.0,620.0,-37.7173,144.8872,Western Metropolitan,3464.0,POINT (144.8872 -37.7173),Moonee Valley - West,0.002319174353032621
Airport West,36 Roberts Rd,4,h,785000.0,Considine,6/08/2016,13.5,3042.0,3.0,1.0,2.0,597.0,-37.7259,144.8792,Western Metropolitan,3464.0,POINT (144.8792 -37.7259),Moonee Valley - West,0.002319174353032621
Airport West,11 Harrington Rd,6,h,725000.0,Barry,7/05/2016,13.5,3042.0,6.0,3.0,2.0,976.0,-37.7239,144.8735,Western Metropolitan,3464.0,POINT (144.8735 -37.7239),Moonee Valley - West,0.002319174353032621
Airport West,2/252 Parer Rd,2,t,450000.0,Barry,7/05/2016,13.5,3042.0,2.0,1.0,1.0,110.0,-37.7216,144.871,Western Metropolitan,3464.0,POINT (144.871 -37.7216),Moonee Valley - West,0.002319174353032621
Airport West,3/19 Hart St,2,u,515000.0,Barry,7/11/2016,13.5,3042.0,2.0,1.0,1.0,141.0,-37.7298,144.8883,Western Metropolitan,3464.0,POINT (144.8883 -37.7298),Moonee Valley - West,0.002319174353032621
Airport West,2/62 Clydesdale Rd,2,u,530000.0,Nelson,10/09/2016,13.5,3042.0,2.0,1.0,1.0,120.0,-37.7234,144.8792,Western Metropolitan,3464.0,POINT (144.8792 -37.7234),Moonee Valley - West,0.002319174353032621
Airport West,3 Deidre Ct,3,h,895000.0,Rendina,10/09/2016,13.5,3042.0,3.0,1.0,6.0,1063.0,-37.7249,144.8728,Western Metropolitan,3464.0,POINT (144.8728 -37.7249),Moonee Valley - West,0.002319174353032621
Airport West,13 Etzel St,3,h,805000.0,Nelson,10/12/2016,13.5,3042.0,3.0,1.0,1.0,0.0,-37.7217,144.8783,Western Metropolitan,3464.0,POINT (144.8783 -37.7217),Moonee Valley - West,0.002319174353032621
Airport West,1/43 Cameron St,3,u,752000.0,Nelson,11/02/2017,13.5,3042.0,3.0,1.0,1.0,265.0,-37.7302,144.8855,Western Metropolitan,3464.0,POINT (144.8855 -37.7302),Moonee Valley - West,0.002319174353032621
Airport West,145a Victory Rd,2,u,440000.0,Barry,13/08/2016,13.5,3042.0,2.0,1.0,1.0,192.0,-37.7177,144.8787,Western Metropolitan,3464.0,POINT (144.8787 -37.7177),Moonee Valley - West,0.002319174353032621
Airport West,241 Parer Rd,5,h,755000.0,Propertyau,14/05/2016,13.5,3042.0,3.0,2.0,2.0,596.0,-37.7248,144.8699,Western Metropolitan,3464.0,POINT (144.8699 -37.7248),Moonee Valley - West,0.002319174353032621
Airport West,2/40 Earl St,3,t,700000.0,Brad,15/10/2016,13.5,3042.0,3.0,2.0,2.0,165.0,-37.727,144.887,Western Metropolitan,3464.0,POINT (144.887 -37.727),Moonee Valley - West,0.002319174353032621
Airport West,180 Parer Rd,3,h,830000.0,Barry,16/04/2016,13.5,3042.0,3.0,1.0,2.0,971.0,-37.7186,144.876,Western Metropolitan,3464.0,POINT (144.876 -37.7186),Moonee Valley - West,0.002319174353032621
Airport West,4/54 Hawker St,2,u,462500.0,Barry,16/07/2016,13.5,3042.0,2.0,1.0,1.0,164.0,-37.7218,144.8863,Western Metropolitan,3464.0,POINT (144.8863 -37.7218),Moonee Valley - West,0.002319174353032621
Airport West,43 Hillside Gr,3,h,670000.0,Barry,16/07/2016,13.5,3042.0,3.0,2.0,2.0,657.0,-37.7269,144.8742,Western Metropolitan,3464.0,POINT (144.8742 -37.7269),Moonee Valley - West,0.002319174353032621
Airport West,174 Parer Rd,2,h,675000.0,Barry,16/07/2016,13.5,3042.0,2.0,1.0,1.0,612.0,-37.7187,144.8765,Western Metropolitan,3464.0,POINT (144.8765 -37.7187),Moonee Valley - West,0.002319174353032621
Airport West,138 Victory Rd,3,h,1042000.0,Nelson,16/07/2016,13.5,3042.0,3.0,2.0,5.0,612.0,-37.7173,144.8796,Western Metropolitan,3464.0,POINT (144.8796 -37.7173),Moonee Valley - West,0.002319174353032621
Airport West,75 King St,3,h,910000.0,McDonald,17/09/2016,13.5,3042.0,3.0,1.0,1.0,775.0,-37.7231,144.8835,Western Metropolitan,3464.0,POINT (144.8835 -37.7231),Moonee Valley - West,0.002319174353032621
Airport West,6 Kittyhawk St,4,h,773000.0,Brad,17/09/2016,13.5,3042.0,5.0,3.0,4.0,531.0,-37.7263,144.8679,Western Metropolitan,3464.0,POINT (144.8679 -37.7263),Moonee Valley - West,0.002319174353032621
Airport West,478 Fullarton Rd,3,h,810000.0,Barry,18/03/2017,13.5,3042.0,3.0,3.0,2.0,555.0,-37.7285,144.8694,Western Metropolitan,3464.0,POINT (144.8694 -37.7285),Moonee Valley - West,0.002319174353032621
Airport West,144 Marshall Rd,3,h,715000.0,Rendina,18/03/2017,13.5,3042.0,3.0,2.0,2.0,422.0,-37.7164,144.8792,Western Metropolitan,3464.0,POINT (144.8792 -37.7164),Moonee Valley - West,0.002319174353032621
Airport West,106 Parer Rd,3,h,790000.0,Nelson,18/03/2017,13.5,3042.0,3.0,1.0,3.0,614.0,-37.7194,144.8827,Western Metropolitan,3464.0,POINT (144.8827 -37.7194),Moonee Valley - West,0.002319174353032621
Airport West,3/7 South Rd,3,t,540000.0,Nelson,18/06/2016,13.5,3042.0,2.0,2.0,1.0,161.0,-37.7231,144.8802,Western Metropolitan,3464.0,POINT (144.8802 -37.7231),Moonee Valley - West,0.002319174353032621
Airport West,37 North St,3,t,825000.0,Barry,19/11/2016,13.5,3042.0,3.0,2.0,1.0,293.0,-37.72,144.8776,Western Metropolitan,3464.0,POINT (144.8776 -37.72),Moonee Valley - West,0.002319174353032621
Airport West,10 Hilbert Rd,3,h,685000.0,Barry,22/05/2016,13.5,3042.0,3.0,1.0,1.0,579.0,-37.7226,144.8733,Western Metropolitan,3464.0,POINT (144.8733 -37.7226),Moonee Valley - West,0.002319174353032621
Airport West,110 Halsey Rd,3,h,805000.0,Barry,22/08/2016,13.5,3042.0,3.0,1.0,1.0,623.0,-37.7184,144.882,Western Metropolitan,3464.0,POINT (144.882 -37.7184),Moonee Valley - West,0.002319174353032621
Airport West,2/13 North St,2,u,510000.0,Nelson,22/08/2016,13.5,3042.0,2.0,1.0,1.0,141.0,-37.7202,144.8797,Western Metropolitan,3464.0,POINT (144.8797 -37.7202),Moonee Valley - West,0.002319174353032621
Airport West,105a Victory Rd,3,h,612000.0,Nelson,22/08/2016,13.5,3042.0,3.0,2.0,1.0,212.0,-37.7181,144.8824,Western Metropolitan,3464.0,POINT (144.8824 -37.7181),Moonee Valley - West,0.002319174353032621
Airport West,117 Marshall Rd,3,h,662000.0,Brad,23/04/2016,13.5,3042.0,3.0,1.0,2.0,612.0,-37.7169,144.8815,Western Metropolitan,3464.0,POINT (144.8815 -37.7169),Moonee Valley - West,0.002319174353032621
Airport West,34 Moorna Dr,4,h,978000.0,Nelson,24/09/2016,13.5,3042.0,4.0,3.0,2.0,532.0,-37.7263,144.869,Western Metropolitan,3464.0,POINT (144.869 -37.7263),Moonee Valley - West,0.002319174353032621
Airport West,33 North St,3,h,720000.0,Nelson,25/02/2017,13.5,3042.0,3.0,1.0,1.0,585.0,-37.72,144.878,Western Metropolitan,3464.0,POINT (144.878 -37.72),Moonee Valley - West,0.002319174353032621
Airport West,49 Roberts Rd,4,h,765000.0,Prof.,27/11/2016,13.5,3042.0,4.0,1.0,2.0,509.0,-37.7261,144.8785,Western Metropolitan,3464.0,POINT (144.8785 -37.7261),Moonee Valley - West,0.002319174353032621
Airport West,85 Roberts Rd,4,h,900000.0,Harcourts,27/11/2016,13.5,3042.0,4.0,2.0,3.0,628.0,-37.7256,144.8739,Western Metropolitan,3464.0,POINT (144.8739 -37.7256),Moonee Valley - West,0.002319174353032621
Albert Park,105 Kerferd Rd,2,h,1275000.0,hockingstuart,3/09/2016,3.3,3206.0,2.0,1.0,0.0,120.0,-37.8459,144.9555,Southern Metropolitan,3280.0,POINT (144.9555 -37.8459),Port Phillip - West,0.0036864469584525447
Albert Park,85 Richardson St,2,h,1455000.0,Thomson,3/09/2016,3.3,3206.0,2.0,1.0,0.0,159.0,-37.845,144.9538,Southern Metropolitan,3280.0,POINT (144.9538 -37.845),Port Phillip - West,0.0036864469584525447
Albert Park,94 Graham St,3,h,1850000.0,Greg,4/03/2017,3.3,3206.0,3.0,2.0,0.0,128.0,-37.8452,144.9488,Southern Metropolitan,3280.0,POINT (144.9488 -37.8452),Port Phillip - West,0.0036864469584525447
Albert Park,396 Montague St,2,h,1436000.0,RT,4/03/2017,3.3,3206.0,2.0,1.0,0.0,130.0,-37.8431,144.9565,Southern Metropolitan,3280.0,POINT (144.9565 -37.8431),Port Phillip - West,0.0036864469584525447
Albert Park,75 Graham St,2,h,1110000.0,Marshall,6/08/2016,3.3,3206.0,1.0,1.0,0.0,147.0,-37.8444,144.9484,Southern Metropolitan,3280.0,POINT (144.9484 -37.8444),Port Phillip - West,0.0036864469584525447
Albert Park,54 Brooke St,2,h,1550000.0,Sotheby's,7/05/2016,3.3,3206.0,2.0,1.0,1.0,167.0,-37.8405,144.9521,Southern Metropolitan,3280.0,POINT (144.9521 -37.8405),Port Phillip - West,0.0036864469584525447
Albert Park,104 Richardson St,4,h,2300000.0,Marshall,7/05/2016,3.3,3206.0,4.0,2.0,1.0,153.0,-37.8447,144.9523,Southern Metropolitan,3280.0,POINT (144.9523 -37.8447),Port Phillip - West,0.0036864469584525447
Albert Park,4a Mills St,3,t,1550000.0,Marshall,7/11/2016,3.3,3206.0,3.0,2.0,2.0,718.0,-37.8443,144.9598,Southern Metropolitan,3280.0,POINT (144.9598 -37.8443),Port Phillip - West,0.0036864469584525447
Albert Park,1 Moubray St,3,h,1800000.0,Greg,7/11/2016,3.3,3206.0,3.0,2.0,1.0,132.0,-37.8415,144.952,Southern Metropolitan,3280.0,POINT (144.952 -37.8415),Port Phillip - West,0.0036864469584525447
Albert Park,29 Faussett St,2,h,2120000.0,Greg,10/09/2016,3.3,3206.0,2.0,1.0,1.0,199.0,-37.8422,144.9554,Southern Metropolitan,3280.0,POINT (144.9554 -37.8422),Port Phillip - West,0.0036864469584525447
Albert Park,3 Herbert St,3,h,1800000.0,Cayzer,10/09/2016,3.3,3206.0,3.0,1.0,1.0,253.0,-37.8443,144.9579,Southern Metropolitan,3280.0,POINT (144.9579 -37.8443),Port Phillip - West,0.0036864469584525447
Albert Park,24 Kerferd Pl,3,h,1800000.0,Marshall,10/09/2016,3.3,3206.0,3.0,2.0,1.0,90.0,-37.8421,144.9571,Southern Metropolitan,3280.0,POINT (144.9571 -37.8421),Port Phillip - West,0.0036864469584525447
Albert Park,44 Draper St,2,h,1810000.0,Greg,10/12/2016,3.3,3206.0,2.0,1.0,0.0,240.0,-37.8379,144.9539,Southern Metropolitan,3280.0,POINT (144.9539 -37.8379),Port Phillip - West,0.0036864469584525447
Albert Park,2 Dundas Pl,3,h,2615000.0,Cayzer,10/12/2016,3.3,3206.0,3.0,2.0,1.0,177.0,-37.8415,144.9585,Southern Metropolitan,3280.0,POINT (144.9585 -37.8415),Port Phillip - West,0.0036864469584525447
Albert Park,23 Finlay St,5,h,2100000.0,Greg,10/12/2016,3.3,3206.0,5.0,2.0,1.0,237.0,-37.8436,144.9557,Southern Metropolitan,3280.0,POINT (144.9557 -37.8436),Port Phillip - West,0.0036864469584525447
Albert Park,31 Richardson St,3,h,1300000.0,hockingstuart,10/12/2016,3.3,3206.0,3.0,1.0,0.0,129.0,-37.8422,144.94899999999996,Southern Metropolitan,3280.0,POINT (144.949 -37.8422),Port Phillip - West,0.0036864469584525447
Albert Park,4a Gatehouse La,3,h,1370000.0,Greg,12/06/2016,3.3,3206.0,3.0,2.0,2.0,0.0,-37.8451,144.9511,Southern Metropolitan,3280.0,POINT (144.9511 -37.8451),Port Phillip - West,0.0036864469584525447
Albert Park,60 Brooke St,2,h,1000000.0,Cayzer,12/11/2016,3.3,3206.0,2.0,1.0,0.0,288.0,-37.8407,144.9523,Southern Metropolitan,3280.0,POINT (144.9523 -37.8407),Port Phillip - West,0.0036864469584525447
Albert Park,70 Barrett St,3,h,2575000.0,Greg,15/10/2016,3.3,3206.0,3.0,2.0,1.0,228.0,-37.8445,144.9501,Southern Metropolitan,3280.0,POINT (144.9501 -37.8445),Port Phillip - West,0.0036864469584525447
Albert Park,65 Graham St,2,h,1322500.0,Greg,15/10/2016,3.3,3206.0,2.0,1.0,0.0,149.0,-37.8443,144.9481,Southern Metropolitan,3280.0,POINT (144.9481 -37.8443),Port Phillip - West,0.0036864469584525447
Albert Park,364 Montague St,2,h,1562500.0,Greg,15/10/2016,3.3,3206.0,2.0,1.0,0.0,141.0,-37.8424,144.9562,Southern Metropolitan,3280.0,POINT (144.9562 -37.8424),Port Phillip - West,0.0036864469584525447
Albert Park,86 Mills St,3,h,2000000.0,RT,16/04/2016,3.3,3206.0,3.0,2.0,1.0,211.0,-37.847,144.9575,Southern Metropolitan,3280.0,POINT (144.9575 -37.847),Port Phillip - West,0.0036864469584525447
Albert Park,129 Kerferd Rd,3,h,1900000.0,Greg,18/03/2017,3.3,3206.0,3.0,1.0,0.0,209.0,-37.8468,144.9546,Southern Metropolitan,3280.0,POINT (144.9546 -37.8468),Port Phillip - West,0.0036864469584525447
Albert Park,97 Page St,3,h,3010000.0,Greg,18/03/2017,3.3,3206.0,3.0,2.0,0.0,147.0,-37.8473,144.9551,Southern Metropolitan,3280.0,POINT (144.9551 -37.8473),Port Phillip - West,0.0036864469584525447
Albert Park,55 Withers St,4,h,2800000.0,Cayzer,18/06/2016,3.3,3206.0,4.0,3.0,1.0,327.0,-37.8467,144.9475,Southern Metropolitan,3280.0,POINT (144.9475 -37.8467),Port Phillip - West,0.0036864469584525447
Albert Park,10/140 Kerferd Rd,2,u,647000.0,Greg,22/05/2016,3.3,3206.0,2.0,1.0,1.0,0.0,-37.846,144.9542,Southern Metropolitan,3280.0,POINT (144.9542 -37.846),Port Phillip - West,0.0036864469584525447
Albert Park,55 Merton St,3,h,2100000.0,Marshall,23/04/2016,3.3,3206.0,2.0,1.0,1.0,120.0,-37.8427,144.9546,Southern Metropolitan,3280.0,POINT (144.9546 -37.8427),Port Phillip - West,0.0036864469584525447
Albert Park,49 Page St,3,h,2000000.0,Marshall,24/09/2016,3.3,3206.0,3.0,1.0,1.0,238.0,-37.8461,144.9528,Southern Metropolitan,3280.0,POINT (144.9528 -37.8461),Port Phillip - West,0.0036864469584525447
Albert Park,13/52 Moubray St,1,u,442500.0,Marshall,25/02/2017,3.3,3206.0,1.0,1.0,0.0,0.0,-37.8421,144.9517,Southern Metropolitan,3280.0,POINT (144.9517 -37.8421),Port Phillip - West,0.0036864469584525447
Albert Park,115 Page St,4,h,4735000.0,Marshall,25/02/2017,3.3,3206.0,4.0,2.0,1.0,330.0,-37.8477,144.9558,Southern Metropolitan,3280.0,POINT (144.9558 -37.8477),Port Phillip - West,0.0036864469584525447
Albert Park,32 Page St,2,h,1340000.0,Greg,25/02/2017,3.3,3206.0,2.0,1.0,0.0,136.0,-37.846,144.9517,Southern Metropolitan,3280.0,POINT (144.9517 -37.846),Port Phillip - West,0.0036864469584525447
Albert Park,34 Richardson St,3,h,1801000.0,hockingstuart,25/02/2017,3.3,3206.0,3.0,1.0,1.0,202.0,-37.8429,144.9493,Southern Metropolitan,3280.0,POINT (144.9493 -37.8429),Port Phillip - West,0.0036864469584525447
Albert Park,2b Dundas Pl,3,h,1532000.0,Chisholm,26/07/2016,3.3,3206.0,3.0,3.0,1.0,0.0,-37.8415,144.9585,Southern Metropolitan,3280.0,POINT (144.9585 -37.8415),Port Phillip - West,0.0036864469584525447
Albert Park,22 Greig St,3,h,3755000.0,Greg,26/07/2016,3.3,3206.0,3.0,2.0,2.0,325.0,-37.8413,144.95,Southern Metropolitan,3280.0,POINT (144.95 -37.8413),Port Phillip - West,0.0036864469584525447
Albert Park,27 Barrett St,4,h,2140000.0,Greg,27/06/2016,3.3,3206.0,3.0,2.0,1.0,183.0,-37.8434,144.9495,Southern Metropolitan,3280.0,POINT (144.9495 -37.8434),Port Phillip - West,0.0036864469584525447
Albert Park,44 Greig St,2,h,1750000.0,Marshall,27/11/2016,3.3,3206.0,2.0,1.0,1.0,162.0,-37.8416,144.9488,Southern Metropolitan,3280.0,POINT (144.9488 -37.8416),Port Phillip - West,0.0036864469584525447
Albert Park,6 Brooke St,2,h,980000.0,Greg,28/05/2016,3.3,3206.0,2.0,1.0,0.0,79.0,-37.8387,144.9519,Southern Metropolitan,3280.0,POINT (144.9519 -37.8387),Port Phillip - West,0.0036864469584525447
Albert Park,227a Danks St,3,h,2030000.0,hockingstuart,28/08/2016,3.3,3206.0,3.0,2.0,0.0,152.0,-37.8488,144.9551,Southern Metropolitan,3280.0,POINT (144.9551 -37.8488),Port Phillip - West,0.0036864469584525447
Albert Park,17 Reed St,3,h,1740000.0,Marshall,28/08/2016,3.3,3206.0,3.0,2.0,2.0,147.0,-37.8448,144.9453,Southern Metropolitan,3280.0,POINT (144.9453 -37.8448),Port Phillip - West,0.0036864469584525447
Albert Park,74 Bridport St,3,h,2800000.0,Buxton,30/07/2016,3.3,3206.0,3.0,3.0,1.0,0.0,-37.8399,144.9577,Southern Metropolitan,3280.0,POINT (144.9577 -37.8399),Port Phillip - West,0.0036864469584525447
Albert Park,9 Durham St,1,h,985000.0,Marshall,30/07/2016,3.3,3206.0,1.0,1.0,0.0,81.0,-37.8411,144.9497,Southern Metropolitan,3280.0,POINT (144.9497 -37.8411),Port Phillip - West,0.0036864469584525447
Alphington,6 Smith St,4,h,2000000.0,Brace,3/09/2016,6.4,3078.0,3.0,2.0,4.0,853.0,-37.7707,145.0318,Northern Metropolitan,2211.0,POINT (145.0318 -37.7707),Darebin- Northcote,0.001434328820323096
Alphington,5/6 Yarralea St,3,h,1110000.0,Jellis,3/09/2016,6.4,3078.0,3.0,2.0,2.0,208.0,-37.7854,145.0325,Northern Metropolitan,2211.0,POINT (145.0325 -37.7854),Yarra - North,0.0013635085488200602
Alphington,136A Fulham Rd,3,h,1492000.0,Jellis,4/03/2017,6.4,3078.0,3.0,2.0,2.0,411.0,-37.7713,145.0279,Northern Metropolitan,2211.0,POINT (145.0279 -37.7713),Darebin- Northcote,0.001434328820323096
Alphington,44 Shiers St,4,h,1717500.0,Collins,8/10/2016,6.4,3078.0,4.0,2.0,1.0,599.0,-37.7717,145.031,Northern Metropolitan,2211.0,POINT (145.031 -37.7717),Darebin- Northcote,0.001434328820323096
Alphington,83 Fulham Rd,5,h,2840000.0,Nelson,12/06/2016,6.4,3078.0,5.0,4.0,4.0,809.0,-37.775,145.0268,Northern Metropolitan,2211.0,POINT (145.0268 -37.775),Darebin- Northcote,0.001434328820323096
Alphington,3/19 Harker St,2,u,525500.0,Miles,12/11/2016,6.4,3078.0,2.0,1.0,1.0,88.0,-37.7791,145.0306,Northern Metropolitan,2211.0,POINT (145.0306 -37.7791),Darebin- Northcote,0.001434328820323096
Alphington,4/2 Miller St,2,t,805000.0,Miles,12/11/2016,6.4,3078.0,2.0,2.0,3.0,155.0,-37.7804,145.0308,Northern Metropolitan,2211.0,POINT (145.0308 -37.7804),Darebin- Northcote,0.001434328820323096
Alphington,2/5 Yarana Rd,2,u,465000.0,McGrath,12/11/2016,6.4,3078.0,2.0,1.0,1.0,0.0,-37.7773,145.0314,Northern Metropolitan,2211.0,POINT (145.0314 -37.7773),Darebin- Northcote,0.001434328820323096
Alphington,815 Heidelberg Rd,3,h,2000000.0,hockingstuart,15/10/2016,6.4,3078.0,3.0,3.0,2.0,686.0,-37.78,145.0341,Northern Metropolitan,2211.0,POINT (145.0341 -37.78),Darebin- Northcote,0.001434328820323096
Alphington,44 Naroon Rd,3,h,1540000.0,Nelson,16/04/2016,6.4,3078.0,3.0,1.0,2.0,592.0,-37.7755,145.0288,Northern Metropolitan,2211.0,POINT (145.0288 -37.7755),Darebin- Northcote,0.001434328820323096
Alphington,3/98 Grange Rd,2,u,820000.0,Nelson,18/03/2017,6.4,3078.0,2.0,1.0,1.0,183.0,-37.7747,145.0264,Northern Metropolitan,2211.0,POINT (145.0264 -37.7747),Darebin- Northcote,0.001434328820323096
Alphington,10 Bennett St,4,h,1830000.0,Nelson,19/11/2016,6.4,3078.0,4.0,2.0,2.0,606.0,-37.7743,145.0316,Northern Metropolitan,2211.0,POINT (145.0316 -37.7743),Darebin- Northcote,0.001434328820323096
Alphington,38 Bennett St,4,h,2100000.0,Nelson,19/11/2016,6.4,3078.0,4.0,2.0,2.0,575.0,-37.7723,145.0319,Northern Metropolitan,2211.0,POINT (145.0319 -37.7723),Darebin- Northcote,0.001434328820323096
Alphington,2c Hamilton St,3,h,865000.0,hockingstuart,22/05/2016,6.4,3078.0,3.0,1.0,1.0,180.0,-37.7802,145.0243,Northern Metropolitan,2211.0,POINT (145.0243 -37.7802),Darebin- Northcote,0.001434328820323096
Alphington,5/5 Yarana Rd,2,u,390000.0,Nelson,22/05/2016,6.4,3078.0,2.0,1.0,1.0,0.0,-37.7773,145.0314,Northern Metropolitan,2211.0,POINT (145.0314 -37.7773),Darebin- Northcote,0.001434328820323096
Alphington,7/7 Chandler Hwy,2,t,650000.0,Brace,24/09/2016,6.4,3078.0,0.0,1.0,0.0,0.0,-37.7848,145.025,Northern Metropolitan,2211.0,POINT (145.025 -37.7848),Yarra - North,0.0013635085488200602
Alphington,1/14 Fulham Rd,2,u,512000.0,Love,25/02/2017,6.4,3078.0,2.0,1.0,1.0,0.0,-37.7805,145.0262,Northern Metropolitan,2211.0,POINT (145.0262 -37.7805),Darebin- Northcote,0.001434328820323096
Alphington,22 Lowther St,3,h,1165000.0,Barry,27/06/2016,6.4,3078.0,3.0,1.0,2.0,979.0,-37.7792,145.029,Northern Metropolitan,2211.0,POINT (145.029 -37.7792),Darebin- Northcote,0.001434328820323096
Alphington,11 Margaret Gr,4,h,1900000.0,McGrath,27/11/2016,6.4,3078.0,4.0,2.0,2.0,556.0,-37.7844,145.0225,Northern Metropolitan,2211.0,POINT (145.0225 -37.7844),Yarra - North,0.0013635085488200602
Alphington,6 Naroon Rd,3,h,1485000.0,McGrath,28/08/2016,6.4,3078.0,3.0,0.0,0.0,597.0,-37.7781,145.0284,Northern Metropolitan,2211.0,POINT (145.0284 -37.7781),Darebin- Northcote,0.001434328820323096
Alphington,42 Shiers St,4,h,1950000.0,Jellis,30/07/2016,6.4,3078.0,4.0,2.0,3.0,589.0,-37.7719,145.0309,Northern Metropolitan,2211.0,POINT (145.0309 -37.7719),Darebin- Northcote,0.001434328820323096
Altona,158 Queen St,3,h,520000.0,Greg,3/09/2016,13.8,3018.0,3.0,2.0,1.0,352.0,-37.87,144.825,Western Metropolitan,5301.0,POINT (144.825 -37.87),Hobsons Bay - Altona,0.004923520376904833
Altona,59 Bracken Gr,5,h,1525000.0,Greg,3/12/2016,13.8,3018.0,5.0,3.0,3.0,729.0,-37.8721,144.8105,Western Metropolitan,5301.0,POINT (144.8105 -37.8721),Hobsons Bay - Altona,0.004923520376904833
Altona,1/123 Blyth St,2,t,720000.0,hockingstuart,4/02/2016,13.8,3018.0,2.0,1.0,2.0,292.0,-37.8687,144.8197,Western Metropolitan,5301.0,POINT (144.8197 -37.8687),Hobsons Bay - Altona,0.004923520376904833
Altona,4 Blyth St,3,h,1120000.0,Barlow,4/03/2017,13.8,3018.0,3.0,1.0,2.0,506.0,-37.8693,144.8375,Western Metropolitan,5301.0,POINT (144.8375 -37.8693),Hobsons Bay - Altona,0.004923520376904833
Altona,20 Linnet St,4,h,780000.0,Sweeney,4/06/2016,13.8,3018.0,4.0,1.0,4.0,655.0,-37.868,144.8154,Western Metropolitan,5301.0,POINT (144.8154 -37.868),Hobsons Bay - Altona,0.004923520376904833
Altona,29 Rose St,4,h,1780000.0,Greg,4/06/2016,13.8,3018.0,4.0,3.0,6.0,1057.0,-37.8681,144.819,Western Metropolitan,5301.0,POINT (144.819 -37.8681),Hobsons Bay - Altona,0.004923520376904833
Altona,1/170 Blyth St,3,u,630000.0,Barlow,6/08/2016,13.8,3018.0,2.0,1.0,2.0,311.0,-37.8702,144.8143,Western Metropolitan,5301.0,POINT (144.8143 -37.8702),Hobsons Bay - Altona,0.004923520376904833
Altona,5/35 Grieve Pde,2,u,406000.0,hockingstuart,6/08/2016,13.8,3018.0,2.0,1.0,1.0,65.0,-37.8693,144.8171,Western Metropolitan,5301.0,POINT (144.8171 -37.8693),Hobsons Bay - Altona,0.004923520376904833
Altona,156 Maidstone St,3,h,660000.0,Greg,7/05/2016,13.8,3018.0,3.0,1.0,1.0,602.0,-37.8616,144.8116,Western Metropolitan,5301.0,POINT (144.8116 -37.8616),Hobsons Bay - Altona,0.004923520376904833
Altona,11 Keeshan Ct,3,h,683500.0,Greg,7/11/2016,13.8,3018.0,3.0,1.0,1.0,530.0,-37.8594,144.817,Western Metropolitan,5301.0,POINT (144.817 -37.8594),Hobsons Bay - Altona,0.004923520376904833
Altona,1/136 Queen St,2,u,580000.0,Barlow,8/10/2016,13.8,3018.0,2.0,1.0,1.0,225.0,-37.8696,144.827,Western Metropolitan,5301.0,POINT (144.827 -37.8696),Hobsons Bay - Altona,0.004923520376904833
Altona,173 Queen St,3,h,1335000.0,hockingstuart,8/10/2016,13.8,3018.0,3.0,1.0,4.0,777.0,-37.8697,144.8249,Western Metropolitan,5301.0,POINT (144.8249 -37.8697),Hobsons Bay - Altona,0.004923520376904833
Altona,1/265 Queen St,3,t,800000.0,hockingstuart,8/10/2016,13.8,3018.0,3.0,2.0,2.0,280.0,-37.8734,144.8143,Western Metropolitan,5301.0,POINT (144.8143 -37.8734),Hobsons Bay - Altona,0.004923520376904833
Altona,3/26 Grieve Pde,2,u,510000.0,Village,10/09/2016,13.8,3018.0,2.0,1.0,1.0,127.0,-37.8686,144.8182,Western Metropolitan,5301.0,POINT (144.8182 -37.8686),Hobsons Bay - Altona,0.004923520376904833
Altona,261 Queen St,4,h,1070000.0,Barlow,10/09/2016,13.8,3018.0,4.0,2.0,2.0,695.0,-37.8733,144.8147,Western Metropolitan,5301.0,POINT (144.8147 -37.8733),Hobsons Bay - Altona,0.004923520376904833
Altona,4/5 Rose St,2,u,425000.0,hockingstuart,10/09/2016,13.8,3018.0,2.0,1.0,2.0,115.0,-37.871,144.8185,Western Metropolitan,5301.0,POINT (144.8185 -37.871),Hobsons Bay - Altona,0.004923520376904833
Altona,1/60 David St,3,u,605000.0,Jas,10/12/2016,13.8,3018.0,3.0,2.0,2.0,230.0,-37.8646,144.827,Western Metropolitan,5301.0,POINT (144.827 -37.8646),Hobsons Bay - Altona,0.004923520376904833
Altona,1A Merritt Ct,3,t,705000.0,hockingstuart,11/02/2017,13.8,3018.0,3.0,2.0,2.0,197.0,-37.8579,144.8181,Western Metropolitan,5301.0,POINT (144.8181 -37.8579),Hobsons Bay - Altona,0.004923520376904833
Altona,4/31 Millers Rd,2,u,391000.0,Greg,11/02/2017,13.8,3018.0,2.0,1.0,1.0,0.0,-37.8678,144.8384,Western Metropolitan,5301.0,POINT (144.8384 -37.8678),Hobsons Bay - Altona,0.004923520376904833
Altona,111/112 Pier St,2,u,440000.0,hockingstuart,11/02/2017,13.8,3018.0,2.0,1.0,1.0,0.0,-37.8659,144.83100000000005,Western Metropolitan,5301.0,POINT (144.831 -37.8659),Hobsons Bay - Altona,0.004923520376904833
Altona,24 Wren St,4,h,845000.0,hockingstuart,11/02/2017,13.8,3018.0,4.0,1.0,2.0,745.0,-37.8658,144.8155,Western Metropolitan,5301.0,POINT (144.8155 -37.8658),Hobsons Bay - Altona,0.004923520376904833
Altona,1/152 Blyth St,3,t,743000.0,Gunn&Co,12/11/2016,13.8,3018.0,3.0,2.0,2.0,211.0,-37.8698,144.816,Western Metropolitan,5301.0,POINT (144.816 -37.8698),Hobsons Bay - Altona,0.004923520376904833
Altona,4/57 Blyth St,3,u,730000.0,Barlow,13/08/2016,13.8,3018.0,3.0,2.0,1.0,69.0,-37.868,144.8286,Western Metropolitan,5301.0,POINT (144.8286 -37.868),Hobsons Bay - Altona,0.004923520376904833
Altona,164 Maidstone St,3,h,635000.0,Sweeney,14/05/2016,13.8,3018.0,3.0,1.0,4.0,625.0,-37.8611,144.8114,Western Metropolitan,5301.0,POINT (144.8114 -37.8611),Hobsons Bay - Altona,0.004923520376904833
Altona,3/25 Rayner St,2,u,620000.0,hockingstuart,14/05/2016,13.8,3018.0,2.0,1.0,1.0,168.0,-37.8676,144.8202,Western Metropolitan,5301.0,POINT (144.8202 -37.8676),Hobsons Bay - Altona,0.004923520376904833
Altona,3/46 Sargood St,2,u,447000.0,Burnham,15/10/2016,13.8,3018.0,2.0,1.0,1.0,137.0,-37.8655,144.8299,Western Metropolitan,5301.0,POINT (144.8299 -37.8655),Hobsons Bay - Altona,0.004923520376904833
Altona,1/57 Blyth St,3,u,730000.0,Barlow,16/04/2016,13.8,3018.0,3.0,2.0,1.0,70.0,-37.868,144.8287,Western Metropolitan,5301.0,POINT (144.8287 -37.868),Hobsons Bay - Altona,0.004923520376904833
Altona,22 Fenfield St,3,h,678000.0,hockingstuart,16/04/2016,13.8,3018.0,3.0,1.0,2.0,606.0,-37.8608,144.8124,Western Metropolitan,5301.0,POINT (144.8124 -37.8608),Hobsons Bay - Altona,0.004923520376904833
Altona,5/8 David St,2,u,580000.0,Biggin,16/07/2016,13.8,3018.0,2.0,2.0,1.0,175.0,-37.8687,144.8268,Western Metropolitan,5301.0,POINT (144.8268 -37.8687),Hobsons Bay - Altona,0.004923520376904833
Altona,1/28 Seves St,3,h,712000.0,hockingstuart,17/09/2016,13.8,3018.0,3.0,1.0,2.0,363.0,-37.8674,144.8375,Western Metropolitan,5301.0,POINT (144.8375 -37.8674),Hobsons Bay - Altona,0.004923520376904833
Altona,27 McIntyre Dr,3,h,840000.0,Greg,18/03/2017,13.8,3018.0,3.0,2.0,2.0,534.0,-37.86,144.8245,Western Metropolitan,5301.0,POINT (144.8245 -37.86),Hobsons Bay - Altona,0.004923520376904833
Altona,4 Boyd St,3,h,980000.0,Barlow,19/11/2016,13.8,3018.0,3.0,1.0,2.0,724.0,-37.8672,144.817,Western Metropolitan,5301.0,POINT (144.817 -37.8672),Hobsons Bay - Altona,0.004923520376904833
Altona,12 Spear Ct,3,t,605100.0,hockingstuart,22/05/2016,13.8,3018.0,3.0,2.0,0.0,265.0,-37.8583,144.8172,Western Metropolitan,5301.0,POINT (144.8172 -37.8583),Hobsons Bay - Altona,0.004923520376904833
Altona,185 Queen St,3,h,880000.0,Barlow,22/08/2016,13.8,3018.0,3.0,3.0,1.0,577.0,-37.8699,144.8235,Western Metropolitan,5301.0,POINT (144.8235 -37.8699),Hobsons Bay - Altona,0.004923520376904833
Altona,3/20 Mulga St,3,u,577000.0,Williams,23/04/2016,13.8,3018.0,3.0,2.0,1.0,205.0,-37.8684,144.815,Western Metropolitan,5301.0,POINT (144.815 -37.8684),Hobsons Bay - Altona,0.004923520376904833
Altona,51 Millers Rd,4,h,1030000.0,Barlow,25/02/2017,13.8,3018.0,4.0,1.0,0.0,797.0,-37.8663,144.8387,Western Metropolitan,5301.0,POINT (144.8387 -37.8663),Hobsons Bay - Altona,0.004923520376904833
Altona,2/119 Railway St N,3,u,605000.0,Barlow,25/02/2017,13.8,3018.0,3.0,1.0,2.0,181.0,-37.8659,144.822,Western Metropolitan,5301.0,POINT (144.822 -37.8659),Hobsons Bay - Altona,0.004923520376904833
Altona,24 McIntyre Dr,3,h,753000.0,Barlow,27/06/2016,13.8,3018.0,3.0,2.0,2.0,529.0,-37.8612,144.8247,Western Metropolitan,5301.0,POINT (144.8247 -37.8612),Hobsons Bay - Altona,0.004923520376904833
Altona,104 Maidstone St,2,h,857000.0,hockingstuart,27/11/2016,13.8,3018.0,2.0,2.0,1.0,675.0,-37.8653,144.8129,Western Metropolitan,5301.0,POINT (144.8129 -37.8653),Hobsons Bay - Altona,0.004923520376904833
Altona,49 Bent St,3,h,1500000.0,Barlow,28/05/2016,13.8,3018.0,3.0,1.0,1.0,929.0,-37.8651,144.832,Western Metropolitan,5301.0,POINT (144.832 -37.8651),Hobsons Bay - Altona,0.004923520376904833
Altona,5/57 Blyth St,3,u,730000.0,Barlow,28/05/2016,13.8,3018.0,3.0,2.0,1.0,70.0,-37.868,144.8285,Western Metropolitan,5301.0,POINT (144.8285 -37.868),Hobsons Bay - Altona,0.004923520376904833
Altona,15 Kookaburra St,3,h,900000.0,Sweeney,28/05/2016,13.8,3018.0,3.0,1.0,4.0,697.0,-37.871,144.8075,Western Metropolitan,5301.0,POINT (144.8075 -37.871),Hobsons Bay - Altona,0.004923520376904833
Altona,219 Civic Pde,3,h,740000.0,Greg,28/08/2016,13.8,3018.0,3.0,1.0,2.0,604.0,-37.8631,144.8195,Western Metropolitan,5301.0,POINT (144.8195 -37.8631),Hobsons Bay - Altona,0.004923520376904833
Altona,3 Curtin Ct,4,h,931000.0,Sweeney,28/08/2016,13.8,3018.0,4.0,2.0,3.0,532.0,-37.8637,144.8365,Western Metropolitan,5301.0,POINT (144.8365 -37.8637),Hobsons Bay - Altona,0.004923520376904833
Altona,2/60 David St,2,h,535600.0,Compton,30/07/2016,13.8,3018.0,2.0,1.0,1.0,154.0,-37.8646,144.8272,Western Metropolitan,5301.0,POINT (144.8272 -37.8646),Hobsons Bay - Altona,0.004923520376904833
Altona North,45 Hearn St,5,h,1085000.0,FN,3/09/2016,11.1,3025.0,5.0,3.0,6.0,592.0,-37.8388,144.8567,Western Metropolitan,5132.0,POINT (144.8567 -37.8388),Hobsons Bay - Altona,0.004923520376904833
Altona North,4 Knapp St,3,h,781000.0,Jas,3/09/2016,11.1,3025.0,3.0,1.0,2.0,533.0,-37.8291,144.835,Western Metropolitan,5132.0,POINT (144.835 -37.8291),Hobsons Bay - Altona,0.004923520376904833
Altona North,21 Hatherley Gr,3,h,750000.0,Jas,4/03/2017,11.1,3025.0,3.0,1.0,3.0,554.0,-37.8449,144.85,Western Metropolitan,5132.0,POINT (144.85 -37.8449),Hobsons Bay - Altona,0.004923520376904833
Altona North,3/66 Marion St,2,t,421000.0,hockingstuart,4/03/2017,11.1,3025.0,2.0,1.0,1.0,77.0,-37.8351,144.8529,Western Metropolitan,5132.0,POINT (144.8529 -37.8351),Hobsons Bay - Altona,0.004923520376904833
Altona North,153 Mills St,3,h,1405000.0,Sweeney,4/03/2017,11.1,3025.0,3.0,1.0,3.0,655.0,-37.8338,144.8562,Western Metropolitan,5132.0,POINT (144.8562 -37.8338),Hobsons Bay - Altona,0.004923520376904833
Altona North,33 Carthy St,3,h,683000.0,FN,4/06/2016,11.1,3025.0,3.0,1.0,2.0,534.0,-37.8284,144.8355,Western Metropolitan,5132.0,POINT (144.8355 -37.8284),Hobsons Bay - Altona,0.004923520376904833
Altona North,16 Harris St,3,h,623000.0,Sweeney,4/06/2016,11.1,3025.0,3.0,1.0,3.0,540.0,-37.8267,144.8368,Western Metropolitan,5132.0,POINT (144.8368 -37.8267),Hobsons Bay - Altona,0.004923520376904833
Altona North,1/5 Little St,3,h,720000.0,Greg,6/08/2016,11.1,3025.0,3.0,2.0,1.0,0.0,-37.8379,144.8583,Western Metropolitan,5132.0,POINT (144.8583 -37.8379),Hobsons Bay - Altona,0.004923520376904833
Altona North,1/95 Mills St,3,h,588000.0,Williams,7/05/2016,11.1,3025.0,3.0,1.0,1.0,328.0,-37.838,144.8555,Western Metropolitan,5132.0,POINT (144.8555 -37.838),Hobsons Bay - Altona,0.004923520376904833
Altona North,5 Binns St,3,h,710000.0,Village,7/11/2016,11.1,3025.0,3.0,1.0,3.0,540.0,-37.8294,144.8378,Western Metropolitan,5132.0,POINT (144.8378 -37.8294),Hobsons Bay - Altona,0.004923520376904833
Altona North,25 Allan St,4,h,875000.0,Jas,8/10/2016,11.1,3025.0,3.0,1.0,4.0,559.0,-37.8448,144.8529,Western Metropolitan,5132.0,POINT (144.8529 -37.8448),Hobsons Bay - Altona,0.004923520376904833
Altona North,21 Hatherley Gr,3,h,700000.0,Jas,10/12/2016,11.1,3025.0,3.0,1.0,3.0,554.0,-37.8449,144.85,Western Metropolitan,5132.0,POINT (144.85 -37.8449),Hobsons Bay - Altona,0.004923520376904833
Altona North,1/256 Mason St,2,t,640000.0,Williams,11/03/2017,11.1,3025.0,2.0,1.0,1.0,252.0,-37.8397,144.8602,Western Metropolitan,5132.0,POINT (144.8602 -37.8397),Hobsons Bay - Altona,0.004923520376904833
Altona North,21 Allan St,4,h,650000.0,Williams,12/06/2016,11.1,3025.0,4.0,1.0,4.0,558.0,-37.8451,144.8529,Western Metropolitan,5132.0,POINT (144.8529 -37.8451),Hobsons Bay - Altona,0.004923520376904833
Altona North,2/36 May St,3,h,675000.0,hockingstuart,14/05/2016,11.1,3025.0,3.0,2.0,2.0,171.0,-37.8337,144.8554,Western Metropolitan,5132.0,POINT (144.8554 -37.8337),Hobsons Bay - Altona,0.004923520376904833
Altona North,11 Beevers St,3,h,708000.0,Greg,15/10/2016,11.1,3025.0,3.0,1.0,2.0,585.0,-37.8258,144.8523,Western Metropolitan,5132.0,POINT (144.8523 -37.8258),Hobsons Bay - Altona,0.004923520376904833
Altona North,10 Murphy St,4,h,965000.0,Gunn&Co,15/10/2016,11.1,3025.0,4.0,1.0,4.0,851.0,-37.8345,144.8444,Western Metropolitan,5132.0,POINT (144.8444 -37.8345),Hobsons Bay - Altona,0.004923520376904833
Altona North,16 Beevers St,3,h,680000.0,Sweeney,19/11/2016,11.1,3025.0,3.0,1.0,3.0,551.0,-37.8254,144.8514,Western Metropolitan,5132.0,POINT (144.8514 -37.8254),Hobsons Bay - Altona,0.004923520376904833
Altona North,21 Neal Ct,3,h,770000.0,hockingstuart,19/11/2016,11.1,3025.0,3.0,1.0,3.0,602.0,-37.8327,144.8451,Western Metropolitan,5132.0,POINT (144.8451 -37.8327),Hobsons Bay - Altona,0.004923520376904833
Altona North,31 Duosa Rd,3,h,923000.0,Greg,22/05/2016,11.1,3025.0,3.0,1.0,2.0,740.0,-37.8269,144.8455,Western Metropolitan,5132.0,POINT (144.8455 -37.8269),Hobsons Bay - Altona,0.004923520376904833
Altona North,252 Millers Rd,4,h,693000.0,Raine&Horne,22/05/2016,11.1,3025.0,4.0,2.0,4.0,315.0,-37.8391,144.8467,Western Metropolitan,5132.0,POINT (144.8467 -37.8391),Hobsons Bay - Altona,0.004923520376904833
Altona North,1/156 Chambers Rd,3,h,620000.0,Hunter,22/08/2016,11.1,3025.0,5.0,2.0,2.0,276.0,-37.8262,144.8443,Western Metropolitan,5132.0,POINT (144.8443 -37.8262),Hobsons Bay - Altona,0.004923520376904833
Altona North,2 Gadsden St,3,h,728500.0,Jas,22/08/2016,11.1,3025.0,3.0,1.0,1.0,531.0,-37.8277,144.8385,Western Metropolitan,5132.0,POINT (144.8385 -37.8277),Hobsons Bay - Altona,0.004923520376904833
Altona North,24 Hansen St,3,h,931000.0,hockingstuart,22/08/2016,11.1,3025.0,3.0,2.0,1.0,590.0,-37.8382,144.8649,Western Metropolitan,5132.0,POINT (144.8649 -37.8382),Hobsons Bay - Williamstown,0.0016711477364881185
Altona North,4 Prismall St,3,h,988000.0,Sweeney,22/08/2016,11.1,3025.0,3.0,1.0,4.0,715.0,-37.8423,144.8632,Western Metropolitan,5132.0,POINT (144.8632 -37.8423),Hobsons Bay - Altona,0.004923520376904833
Altona North,122 McIntosh Rd,3,h,590000.0,Village,23/04/2016,11.1,3025.0,3.0,1.0,2.0,561.0,-37.8444,144.8491,Western Metropolitan,5132.0,POINT (144.8491 -37.8444),Hobsons Bay - Altona,0.004923520376904833
Altona North,35 May St,2,h,610000.0,RT,24/09/2016,11.1,3025.0,2.0,1.0,2.0,691.0,-37.834,144.8553,Western Metropolitan,5132.0,POINT (144.8553 -37.834),Hobsons Bay - Altona,0.004923520376904833
Altona North,6 Hill St,3,h,815000.0,hockingstuart,25/02/2017,11.1,3025.0,3.0,2.0,3.0,555.0,-37.8318,144.8388,Western Metropolitan,5132.0,POINT (144.8388 -37.8318),Hobsons Bay - Altona,0.004923520376904833
Altona North,84 May St,4,h,970000.0,Greg,25/02/2017,11.1,3025.0,4.0,1.0,2.0,708.0,-37.833,144.8494,Western Metropolitan,5132.0,POINT (144.8494 -37.833),Hobsons Bay - Altona,0.004923520376904833
Altona North,155 Chambers Rd,4,h,760000.0,Hunter,27/06/2016,11.1,3025.0,4.0,1.0,3.0,668.0,-37.8262,144.8439,Western Metropolitan,5132.0,POINT (144.8439 -37.8262),Hobsons Bay - Altona,0.004923520376904833
Altona North,268d Mason St,4,t,847500.0,RT,27/06/2016,11.1,3025.0,4.0,3.0,1.0,252.0,-37.8393,144.8568,Western Metropolitan,5132.0,POINT (144.8568 -37.8393),Hobsons Bay - Altona,0.004923520376904833
Altona North,5 Cresser St,4,h,1200000.0,RT,27/11/2016,11.1,3025.0,4.0,1.0,4.0,633.0,-37.8375,144.8541,Western Metropolitan,5132.0,POINT (144.8541 -37.8375),Hobsons Bay - Altona,0.004923520376904833
Altona North,107 McIntosh Rd,3,h,700000.0,Hunter,27/11/2016,11.1,3025.0,3.0,1.0,1.0,557.0,-37.8441,144.8505,Western Metropolitan,5132.0,POINT (144.8505 -37.8441),Hobsons Bay - Altona,0.004923520376904833
Altona North,10 Knapp St,3,h,625000.0,Hunter,28/05/2016,11.1,3025.0,3.0,1.0,1.0,536.0,-37.8285,144.8351,Western Metropolitan,5132.0,POINT (144.8351 -37.8285),Hobsons Bay - Altona,0.004923520376904833
Altona North,4/221 Blackshaws Rd,2,u,292000.0,Jas,28/08/2016,11.1,3025.0,2.0,1.0,1.0,153.0,-37.8332,144.8649,Western Metropolitan,5132.0,POINT (144.8649 -37.8332),Hobsons Bay - Altona,0.004923520376904833
Armadale,8/19 Mercer Rd,2,u,599000.0,Jellis,3/09/2016,6.3,3143.0,2.0,1.0,1.0,0.0,-37.8543,145.0262,Southern Metropolitan,4836.0,POINT (145.0262 -37.8543),Stonnington - Malvern,0.0016457902675028478
Armadale,1/42 Adelaide St,2,u,550000.0,Noel,3/12/2016,6.3,3143.0,2.0,1.0,0.0,861.0,-37.8539,145.0284,Southern Metropolitan,4836.0,POINT (145.0284 -37.8539),Stonnington - Malvern,0.0016457902675028478
Armadale,14/71 Denbigh Rd,3,u,995000.0,Marshall,3/12/2016,6.3,3143.0,3.0,2.0,2.0,0.0,-37.8552,145.016,Southern Metropolitan,4836.0,POINT (145.016 -37.8552),Stonnington - Prahran,0.0009803458233365477
Armadale,4/769 High St,3,t,1205000.0,Jellis,3/12/2016,6.3,3143.0,3.0,2.0,2.0,101.0,-37.854,145.0135,Southern Metropolitan,4836.0,POINT (145.0135 -37.854),Stonnington - Prahran,0.0009803458233365477
Armadale,7 Llaneast St,3,h,1939000.0,Jellis,3/12/2016,6.3,3143.0,3.0,2.0,2.0,296.0,-37.8614,145.0274,Southern Metropolitan,4836.0,POINT (145.0274 -37.8614),Stonnington - Malvern,0.0016457902675028478
Armadale,9/55 Northcote Rd,1,u,421500.0,Biggin,3/12/2016,6.3,3143.0,1.0,1.0,0.0,0.0,-37.853,145.0167,Southern Metropolitan,4836.0,POINT (145.0167 -37.853),Stonnington - Prahran,0.0009803458233365477
Armadale,28 Cambridge St,3,h,1870000.0,Hodges,4/03/2017,6.3,3143.0,3.0,1.0,1.0,217.0,-37.8592,145.0182,Southern Metropolitan,4836.0,POINT (145.0182 -37.8592),Stonnington - Prahran,0.0009803458233365477
Armadale,3/16 Fulton St,2,u,678000.0,hockingstuart,4/03/2017,6.3,3143.0,2.0,1.0,2.0,0.0,-37.8538,145.0127,Southern Metropolitan,4836.0,POINT (145.0127 -37.8538),Stonnington - Prahran,0.0009803458233365477
Armadale,3/20 Mercer Rd,3,t,1918000.0,Jellis,4/03/2017,6.3,3143.0,3.0,2.0,2.0,0.0,-37.8537,145.0267,Southern Metropolitan,4836.0,POINT (145.0267 -37.8537),Stonnington - Malvern,0.0016457902675028478
Armadale,1/77 Wattletree Rd,2,u,660000.0,hockingstuart,4/03/2017,6.3,3143.0,2.0,1.0,1.0,0.0,-37.8619,145.0257,Southern Metropolitan,4836.0,POINT (145.0257 -37.8619),Stonnington - Malvern,0.0016457902675028478
Armadale,12 Willis St,3,h,2050000.0,Marshall,4/03/2017,6.3,3143.0,3.0,2.0,1.0,205.0,-37.8574,145.0281,Southern Metropolitan,4836.0,POINT (145.0281 -37.8574),Stonnington - Malvern,0.0016457902675028478
Armadale,8/71 Denbigh Rd,2,u,700000.0,Jellis,4/06/2016,6.3,3143.0,2.0,1.0,2.0,0.0,-37.8552,145.016,Southern Metropolitan,4836.0,POINT (145.016 -37.8552),Stonnington - Prahran,0.0009803458233365477
Armadale,11/17 Myamyn St,2,u,3625000.0,Jellis,4/06/2016,6.3,3143.0,3.0,2.0,2.0,0.0,-37.8555,145.0291,Southern Metropolitan,4836.0,POINT (145.0291 -37.8555),Stonnington - Malvern,0.0016457902675028478
Armadale,526 Orrong Rd,4,h,3000000.0,Jellis,4/06/2016,6.3,3143.0,4.0,2.0,2.0,1581.0,-37.858,145.0111,Southern Metropolitan,4836.0,POINT (145.0111 -37.858),Stonnington - Prahran,0.0009803458233365477
Armadale,553 Dandenong Rd,5,h,1525000.0,Jellis,7/05/2016,6.3,3143.0,8.0,2.0,2.0,693.0,-37.8638,145.0229,Southern Metropolitan,4836.0,POINT (145.0229 -37.8638),Stonnington - Malvern,0.0016457902675028478
Armadale,9/19 Mercer Rd,3,u,735000.0,Marshall,7/05/2016,6.3,3143.0,3.0,2.0,1.0,2113.0,-37.8543,145.0262,Southern Metropolitan,4836.0,POINT (145.0262 -37.8543),Stonnington - Malvern,0.0016457902675028478
Armadale,6/26 Mercer Rd,2,u,825000.0,Jellis,7/05/2016,6.3,3143.0,2.0,1.0,1.0,0.0,-37.8528,145.0268,Southern Metropolitan,4836.0,POINT (145.0268 -37.8528),Stonnington - Malvern,0.0016457902675028478
Armadale,538a Orrong Rd,3,t,1586000.0,RT,7/05/2016,6.3,3143.0,2.0,2.0,2.0,246.0,-37.8566,145.0116,Southern Metropolitan,4836.0,POINT (145.0116 -37.8566),Stonnington - Prahran,0.0009803458233365477
Armadale,18/41 Kooyong Rd,2,u,645000.0,Marshall,8/10/2016,6.3,3143.0,3.0,1.0,1.0,0.0,-37.8596,145.0198,Southern Metropolitan,4836.0,POINT (145.0198 -37.8596),Stonnington - Prahran,0.0009803458233365477
Armadale,10 William St,1,h,1435000.0,Jellis,8/10/2016,6.3,3143.0,2.0,2.0,1.0,144.0,-37.8564,145.0228,Southern Metropolitan,4836.0,POINT (145.0228 -37.8564),Stonnington - Malvern,0.0016457902675028478
Armadale,15/405 Dandenong Rd,1,u,280000.0,hockingstuart,10/09/2016,6.3,3143.0,1.0,1.0,1.0,0.0,-37.8619,145.0185,Southern Metropolitan,4836.0,POINT (145.0185 -37.8619),Stonnington - Prahran,0.0009803458233365477
Armadale,1/2 Armadale St,1,u,400000.0,hockingstuart,10/12/2016,6.3,3143.0,1.0,1.0,1.0,0.0,-37.8605,145.0185,Southern Metropolitan,4836.0,POINT (145.0185 -37.8605),Stonnington - Prahran,0.0009803458233365477
Armadale,4/20 Mercer Rd,2,h,1780000.0,Marshall,10/12/2016,6.3,3143.0,2.0,2.0,2.0,0.0,-37.8537,145.0267,Southern Metropolitan,4836.0,POINT (145.0267 -37.8537),Stonnington - Malvern,0.0016457902675028478
Armadale,8/58 Sutherland Rd,2,u,592500.0,hockingstuart,10/12/2016,6.3,3143.0,2.0,1.0,1.0,0.0,-37.8574,145.0174,Southern Metropolitan,4836.0,POINT (145.0174 -37.8574),Stonnington - Prahran,0.0009803458233365477
Armadale,40 New St,2,h,1210000.0,Marshall,12/11/2016,6.3,3143.0,2.0,1.0,0.0,249.0,-37.8543,145.016,Southern Metropolitan,4836.0,POINT (145.016 -37.8543),Stonnington - Prahran,0.0009803458233365477
Armadale,35 Northcote Rd,4,h,2801000.0,Marshall,12/11/2016,6.3,3143.0,4.0,2.0,2.0,624.0,-37.8536,145.0173,Southern Metropolitan,4836.0,POINT (145.0173 -37.8536),Stonnington - Prahran,0.0009803458233365477
Armadale,7/53 Wattletree Rd,1,u,390000.0,Jellis,14/05/2016,6.3,3143.0,1.0,1.0,0.0,881.0,-37.8614,145.0222,Southern Metropolitan,4836.0,POINT (145.0222 -37.8614),Stonnington - Malvern,0.0016457902675028478
Armadale,791 High St,3,h,1800000.0,RT,15/10/2016,6.3,3143.0,3.0,2.0,2.0,405.0,-37.8545,145.0145,Southern Metropolitan,4836.0,POINT (145.0145 -37.8545),Stonnington - Prahran,0.0009803458233365477
Armadale,25 Llaneast St,4,h,2200000.0,Jellis,15/10/2016,6.3,3143.0,4.0,1.0,2.0,495.0,-37.8613,145.0264,Southern Metropolitan,4836.0,POINT (145.0264 -37.8613),Stonnington - Malvern,0.0016457902675028478
Armadale,8/569 Orrong Rd,1,u,324000.0,Jellis,16/04/2016,6.3,3143.0,1.0,1.0,1.0,0.0,-37.8537,145.0114,Southern Metropolitan,4836.0,POINT (145.0114 -37.8537),Stonnington - Prahran,0.0009803458233365477
Armadale,367 Dandenong Rd,6,h,5525000.0,Marshall,17/09/2016,6.3,3143.0,5.0,3.0,4.0,1491.0,-37.8602,145.013,Southern Metropolitan,4836.0,POINT (145.013 -37.8602),Stonnington - Prahran,0.0009803458233365477
Armadale,34a Rose St,2,h,1125000.0,RT,17/09/2016,6.3,3143.0,3.0,1.0,2.0,169.0,-37.851,145.0161,Southern Metropolitan,4836.0,POINT (145.0161 -37.851),Stonnington - Prahran,0.0009803458233365477
Armadale,42 Rose St,3,h,2250000.0,Marshall,17/09/2016,6.3,3143.0,3.0,3.0,1.0,301.0,-37.8511,145.0167,Southern Metropolitan,4836.0,POINT (145.0167 -37.8511),Stonnington - Prahran,0.0009803458233365477
Armadale,12 Auburn Gr,3,h,2360000.0,hockingstuart,18/03/2017,6.3,3143.0,3.0,2.0,0.0,336.0,-37.8558,145.015,Southern Metropolitan,4836.0,POINT (145.015 -37.8558),Stonnington - Prahran,0.0009803458233365477
Armadale,31 Hume St,2,h,1900000.0,Jellis,18/03/2017,6.3,3143.0,2.0,2.0,0.0,207.0,-37.8571,145.0224,Southern Metropolitan,4836.0,POINT (145.0224 -37.8571),Stonnington - Malvern,0.0016457902675028478
Armadale,10/581 Orrong Rd,1,u,440000.0,Jellis,18/03/2017,6.3,3143.0,1.0,1.0,1.0,0.0,-37.8531,145.0115,Southern Metropolitan,4836.0,POINT (145.0115 -37.8531),Stonnington - Prahran,0.0009803458233365477
Armadale,7/579 Dandenong Rd,2,u,490000.0,Ray,18/06/2016,6.3,3143.0,2.0,1.0,1.0,0.0,-37.8646,145.0247,Southern Metropolitan,4836.0,POINT (145.0247 -37.8646),Stonnington - Malvern,0.0016457902675028478
Armadale,19 Glassford St,3,h,2365000.0,Marshall,18/06/2016,6.3,3143.0,3.0,2.0,1.0,316.0,-37.8521,145.019,Southern Metropolitan,4836.0,POINT (145.019 -37.8521),Stonnington - Prahran,0.0009803458233365477
Armadale,14 New St,3,h,1300000.0,Jellis,18/06/2016,6.3,3143.0,2.0,1.0,2.0,212.0,-37.8542,145.0149,Southern Metropolitan,4836.0,POINT (145.0149 -37.8542),Stonnington - Prahran,0.0009803458233365477
Armadale,7/501 Orrong Rd,3,u,732000.0,Gary,18/06/2016,6.3,3143.0,3.0,2.0,2.0,0.0,-37.8597,145.0104,Southern Metropolitan,4836.0,POINT (145.0104 -37.8597),Stonnington - Prahran,0.0009803458233365477
Armadale,6/51 Armadale St,2,u,704000.0,Greg,19/11/2016,6.3,3143.0,2.0,1.0,1.0,0.0,-37.8573,145.0186,Southern Metropolitan,4836.0,POINT (145.0186 -37.8573),Stonnington - Prahran,0.0009803458233365477
Armadale,12/41 Kooyong Rd,2,u,620000.0,Marshall,19/11/2016,6.3,3143.0,3.0,1.0,1.0,0.0,-37.8596,145.0198,Southern Metropolitan,4836.0,POINT (145.0198 -37.8596),Stonnington - Prahran,0.0009803458233365477
Armadale,63 Denbigh Rd,3,h,1900000.0,Marshall,22/05/2016,6.3,3143.0,3.0,1.0,2.0,328.0,-37.8559,145.0158,Southern Metropolitan,4836.0,POINT (145.0158 -37.8559),Stonnington - Prahran,0.0009803458233365477
Armadale,13/56 Sutherland Rd,1,u,315000.0,Fletchers,22/08/2016,6.3,3143.0,1.0,1.0,1.0,0.0,-37.8575,145.0174,Southern Metropolitan,4836.0,POINT (145.0174 -37.8575),Stonnington - Prahran,0.0009803458233365477
Armadale,7/22 Derby St,1,u,450000.0,hockingstuart,24/09/2016,6.3,3143.0,1.0,1.0,1.0,0.0,-37.8509,145.0203,Southern Metropolitan,4836.0,POINT (145.0203 -37.8509),Stonnington - Prahran,0.0009803458233365477
Armadale,10/51 Armadale St,2,u,710000.0,Jellis,25/02/2017,6.3,3143.0,2.0,1.0,1.0,2471.0,-37.8573,145.0186,Southern Metropolitan,4836.0,POINT (145.0186 -37.8573),Stonnington - Prahran,0.0009803458233365477
Armadale,2/377 Dandenong Rd,2,u,872000.0,Jellis,25/02/2017,6.3,3143.0,2.0,1.0,1.0,1194.0,-37.8604,145.0147,Southern Metropolitan,4836.0,POINT (145.0147 -37.8604),Stonnington - Prahran,0.0009803458233365477
Armadale,1/14 Denbigh Rd,2,u,598000.0,hockingstuart,25/02/2017,6.3,3143.0,2.0,1.0,1.0,0.0,-37.8593,145.0156,Southern Metropolitan,4836.0,POINT (145.0156 -37.8593),Stonnington - Prahran,0.0009803458233365477
Armadale,75 Sutherland Rd,3,h,1285000.0,Marshall,25/02/2017,6.3,3143.0,3.0,1.0,2.0,186.0,-37.8554,145.0173,Southern Metropolitan,4836.0,POINT (145.0173 -37.8554),Stonnington - Prahran,0.0009803458233365477
Armadale,61 Union St,4,h,3660000.0,Jellis,25/02/2017,6.3,3143.0,4.0,3.0,2.0,421.0,-37.8593,145.0275,Southern Metropolitan,4836.0,POINT (145.0275 -37.8593),Stonnington - Malvern,0.0016457902675028478
Armadale,1/403 Dandenong Rd,2,u,520000.0,hockingstuart,27/06/2016,6.3,3143.0,1.0,1.0,1.0,0.0,-37.8618,145.0183,Southern Metropolitan,4836.0,POINT (145.0183 -37.8618),Stonnington - Prahran,0.0009803458233365477
Armadale,44 Denbigh Rd,4,h,3625000.0,Jellis,27/11/2016,6.3,3143.0,4.0,1.0,2.0,709.0,-37.8574,145.016,Southern Metropolitan,4836.0,POINT (145.016 -37.8574),Stonnington - Prahran,0.0009803458233365477
Armadale,44 Hampden Rd,4,h,4200000.0,Kay,27/11/2016,6.3,3143.0,4.0,3.0,3.0,563.0,-37.8582,145.0138,Southern Metropolitan,4836.0,POINT (145.0138 -37.8582),Stonnington - Prahran,0.0009803458233365477
Armadale,3/769 High St,3,t,1101000.0,Jellis,27/11/2016,6.3,3143.0,3.0,1.0,2.0,103.0,-37.8542,145.0135,Southern Metropolitan,4836.0,POINT (145.0135 -37.8542),Stonnington - Prahran,0.0009803458233365477
Armadale,4 Mercer Rd,3,h,3512500.0,Marshall,27/11/2016,6.3,3143.0,3.0,2.0,2.0,617.0,-37.8557,145.0264,Southern Metropolitan,4836.0,POINT (145.0264 -37.8557),Stonnington - Malvern,0.0016457902675028478
Armadale,17 Kooyong Rd,4,h,2000000.0,Marshall,28/05/2016,6.3,3143.0,4.0,3.0,4.0,544.0,-37.8611,145.0195,Southern Metropolitan,4836.0,POINT (145.0195 -37.8611),Stonnington - Prahran,0.0009803458233365477
Armadale,1/31 Mercer Rd,3,u,869000.0,Jellis,28/05/2016,6.3,3143.0,2.0,1.0,1.0,0.0,-37.853,145.0264,Southern Metropolitan,4836.0,POINT (145.0264 -37.853),Stonnington - Malvern,0.0016457902675028478
Armadale,16 Llaneast St,5,h,2810000.0,Marshall,28/08/2016,6.3,3143.0,5.0,2.0,2.0,617.0,-37.8611,145.0271,Southern Metropolitan,4836.0,POINT (145.0271 -37.8611),Stonnington - Malvern,0.0016457902675028478
Armadale,2/532 Orrong Rd,2,u,565000.0,Ray,28/08/2016,6.3,3143.0,3.0,1.0,1.0,0.0,-37.8573,145.0112,Southern Metropolitan,4836.0,POINT (145.0112 -37.8573),Stonnington - Prahran,0.0009803458233365477
Armadale,5/555 Orrong Rd,1,u,567000.0,hockingstuart,28/08/2016,6.3,3143.0,1.0,1.0,1.0,0.0,-37.8549,145.0113,Southern Metropolitan,4836.0,POINT (145.0113 -37.8549),Stonnington - Prahran,0.0009803458233365477
Armadale,3/50 Denbigh Rd,2,u,546000.0,hockingstuart,30/07/2016,6.3,3143.0,2.0,0.0,0.0,0.0,-37.8568,145.0161,Southern Metropolitan,4836.0,POINT (145.0161 -37.8568),Stonnington - Prahran,0.0009803458233365477
Armadale,7/844 Malvern Rd,2,u,471500.0,Ray,30/07/2016,6.3,3143.0,2.0,1.0,1.0,0.0,-37.8503,145.0185,Southern Metropolitan,4836.0,POINT (145.0185 -37.8503),Stonnington - Prahran,0.0009803458233365477
Ascot Vale,2/43 Roxburgh St,2,u,455000.0,Nelson,3/09/2016,5.9,3032.0,3.0,1.0,2.0,0.0,-37.7756,144.9165,Western Metropolitan,6567.0,POINT (144.9165 -37.7756),Moonee Valley - Essendon,0.0022060755873106685
Ascot Vale,30 Rothwell St,3,h,940000.0,Nelson,3/12/2016,5.9,3032.0,3.0,1.0,2.0,298.0,-37.7777,144.9195,Western Metropolitan,6567.0,POINT (144.9195 -37.7777),Moonee Valley - Essendon,0.0022060755873106685
Ascot Vale,9/5 Rothwell St,2,u,467000.0,Brad,3/12/2016,5.9,3032.0,2.0,1.0,1.0,0.0,-37.7761,144.9201,Western Metropolitan,6567.0,POINT (144.9201 -37.7761),Moonee Valley - Essendon,0.0022060755873106685
Ascot Vale,7 Francis St,3,h,1380000.0,Nelson,4/03/2017,5.9,3032.0,3.0,2.0,2.0,277.0,-37.7777,144.9221,Western Metropolitan,6567.0,POINT (144.9221 -37.7777),Moonee Valley - Essendon,0.0022060755873106685
Ascot Vale,2/21 Harold St,2,u,490000.0,Jellis,4/03/2017,5.9,3032.0,2.0,1.0,1.0,423.0,-37.7736,144.9015,Western Metropolitan,6567.0,POINT (144.9015 -37.7736),Moonee Valley - Essendon,0.0022060755873106685
Ascot Vale,44 The Parade,4,h,1850000.0,Brad,4/03/2017,5.9,3032.0,4.0,3.0,1.0,478.0,-37.7729,144.9179,Western Metropolitan,6567.0,POINT (144.9179 -37.7729),Moonee Valley - Essendon,0.0022060755873106685
Ascot Vale,97 Walter St,3,h,1284000.0,Woodards,4/03/2017,5.9,3032.0,3.0,1.0,2.0,623.0,-37.7758,144.9089,Western Metropolitan,6567.0,POINT (144.9089 -37.7758),Moonee Valley - Essendon,0.0022060755873106685
Ascot Vale,98 Epsom Rd,3,h,971000.0,Nelson,4/06/2016,5.9,3032.0,3.0,2.0,2.0,285.0,-37.775,144.9091,Western Metropolitan,6567.0,POINT (144.9091 -37.775),Moonee Valley - Essendon,0.0022060755873106685
Ascot Vale,8 Geddes St,2,h,710000.0,Nelson,4/06/2016,5.9,3032.0,2.0,1.0,1.0,214.0,-37.7776,144.9142,Western Metropolitan,6567.0,POINT (144.9142 -37.7776),Moonee Valley - Essendon,0.0022060755873106685
Ascot Vale,75 Maribyrnong Rd,6,h,2425000.0,Brad,4/06/2016,5.9,3032.0,6.0,3.0,2.0,1014.0,-37.7721,144.9184,Western Metropolitan,6567.0,POINT (144.9184 -37.7721),Moonee Valley - Essendon,0.0022060755873106685
Ascot Vale,119 Roseberry St,2,h,750000.0,Maddison,4/06/2016,5.9,3032.0,2.0,1.0,1.0,226.0,-37.7745,144.9093,Western Metropolitan,6567.0,POINT (144.9093 -37.7745),Moonee Valley - Essendon,0.0022060755873106685
Ascot Vale,10 Fenton St,2,h,1053000.0,Nelson,6/08/2016,5.9,3032.0,2.0,1.0,1.0,269.0,-37.7748,144.929,Western Metropolitan,6567.0,POINT (144.929 -37.7748),Moonee Valley - Essendon,0.0022060755873106685
Ascot Vale,10 McCully St,3,h,1377000.0,Nelson,6/08/2016,5.9,3032.0,3.0,1.0,1.0,417.0,-37.7756,144.9208,Western Metropolitan,6567.0,POINT (144.9208 -37.7756),Moonee Valley - Essendon,0.0022060755873106685
Ascot Vale,120 Epsom Rd,3,h,970000.0,Brad,7/05/2016,5.9,3032.0,3.0,1.0,2.0,350.0,-37.7759,144.91,Western Metropolitan,6567.0,POINT (144.91 -37.7759),Moonee Valley - Essendon,0.0022060755873106685
Ascot Vale,47 Hurtle St,2,h,940000.0,Nelson,7/05/2016,5.9,3032.0,2.0,1.0,1.0,330.0,-37.773,144.9049,Western Metropolitan,6567.0,POINT (144.9049 -37.773),Moonee Valley - Essendon,0.0022060755873106685
Ascot Vale,63 Kent St,2,h,751000.0,Nelson,7/05/2016,5.9,3032.0,2.0,1.0,1.0,118.0,-37.7807,144.9288,Western Metropolitan,6567.0,POINT (144.9288 -37.7807),Moonee Valley - Essendon,0.0022060755873106685
Ascot Vale,4 The Parade,2,h,950000.0,Raine,7/05/2016,5.9,3032.0,2.0,1.0,1.0,173.0,-37.7731,144.9206,Western Metropolitan,6567.0,POINT (144.9206 -37.7731),Moonee Valley - Essendon,0.0022060755873106685
Ascot Vale,1/17 Epsom Rd,2,u,685000.0,Brad,7/11/2016,5.9,3032.0,2.0,1.0,2.0,228.0,-37.7718,144.9066,Western Metropolitan,6567.0,POINT (144.9066 -37.7718),Moonee Valley - Essendon,0.0022060755873106685
Ascot Vale,41 Monash St,3,h,1230000.0,Nelson,8/10/2016,5.9,3032.0,4.0,1.0,2.0,594.0,-37.7819,144.9064,Western Metropolitan,6567.0,POINT (144.9064 -37.7819),Moonee Valley - Essendon,0.0022060755873106685
Ascot Vale,2/78 Ormond Rd,2,h,636500.0,Jellis,8/10/2016,5.9,3032.0,2.0,1.0,1.0,0.0,-37.7738,144.9345,Western Metropolitan,6567.0,POINT (144.9345 -37.7738),Moonee Valley - Essendon,0.0022060755873106685
Ascot Vale,83 Roseberry St,3,h,910000.0,Raine,8/10/2016,5.9,3032.0,3.0,1.0,0.0,317.0,-37.7746,144.9112,Western Metropolitan,6567.0,POINT (144.9112 -37.7746),Moonee Valley - Essendon,0.0022060755873106685
Ascot Vale,51 Francis St,2,h,770000.0,Nelson,10/09/2016,5.9,3032.0,2.0,1.0,1.0,226.0,-37.7774,144.9186,Western Metropolitan,6567.0,POINT (144.9186 -37.7774),Moonee Valley - Essendon,0.0022060755873106685
Ascot Vale,33 Dalgety Dr,3,h,960000.0,Walshe,10/12/2016,5.9,3032.0,3.0,2.0,2.0,229.0,-37.7778,144.9065,Western Metropolitan,6567.0,POINT (144.9065 -37.7778),Moonee Valley - Essendon,0.0022060755873106685
Ascot Vale,12 Mirams St,4,h,890000.0,Raine,10/12/2016,5.9,3032.0,4.0,1.0,1.0,300.0,-37.7766,144.9143,Western Metropolitan,6567.0,POINT (144.9143 -37.7766),Moonee Valley - Essendon,0.0022060755873106685
Ascot Vale,2 The Parade,2,h,965000.0,Nelson,10/12/2016,5.9,3032.0,2.0,1.0,1.0,170.0,-37.7732,144.9206,Western Metropolitan,6567.0,POINT (144.9206 -37.7732),Moonee Valley - Essendon,0.0022060755873106685
Ascot Vale,78 The Parade,3,h,1440000.0,Nelson,11/02/2017,5.9,3032.0,3.0,1.0,1.0,487.0,-37.7725,144.9146,Western Metropolitan,6567.0,POINT (144.9146 -37.7725),Moonee Valley - Essendon,0.0022060755873106685
Ascot Vale,11 Ascot St,2,h,955000.0,Woodards,11/03/2017,5.9,3032.0,2.0,1.0,0.0,255.0,-37.7825,144.9208,Western Metropolitan,6567.0,POINT (144.9208 -37.7825),Moonee Valley - Essendon,0.0022060755873106685
Ascot Vale,24/54 Epsom Rd,2,u,450000.0,Nelson,12/11/2016,5.9,3032.0,2.0,1.0,1.0,0.0,-37.7731,144.9074,Western Metropolitan,6567.0,POINT (144.9074 -37.7731),Moonee Valley - Essendon,0.0022060755873106685
Ascot Vale,2 Farncomb St,3,h,801000.0,Jellis,12/11/2016,5.9,3032.0,3.0,1.0,2.0,431.0,-37.781,144.9207,Western Metropolitan,6567.0,POINT (144.9207 -37.781),Moonee Valley - Essendon,0.0022060755873106685
Ascot Vale,26 Newsom St,3,h,1000000.0,Brad,12/11/2016,5.9,3032.0,3.0,2.0,2.0,440.0,-37.7746,144.9031,Western Metropolitan,6567.0,POINT (144.9031 -37.7746),Moonee Valley - Essendon,0.0022060755873106685
Ascot Vale,8 Pentland St,3,h,1435000.0,Nelson,12/11/2016,5.9,3032.0,3.0,2.0,2.0,532.0,-37.7737,144.904,Western Metropolitan,6567.0,POINT (144.904 -37.7737),Moonee Valley - Essendon,0.0022060755873106685
Ascot Vale,8/129 The Parade,1,u,390000.0,Alexkarbon,12/11/2016,5.9,3032.0,1.0,1.0,1.0,0.0,-37.7723,144.9094,Western Metropolitan,6567.0,POINT (144.9094 -37.7723),Moonee Valley - Essendon,0.0022060755873106685
Ascot Vale,52 Monash St,3,h,1425000.0,Jellis,13/08/2016,5.9,3032.0,3.0,2.0,2.0,495.0,-37.7821,144.9055,Western Metropolitan,6567.0,POINT (144.9055 -37.7821),Moonee Valley - Essendon,0.0022060755873106685
Ascot Vale,58 Fenton St,4,h,1340000.0,Nelson,14/05/2016,5.9,3032.0,3.0,2.0,2.0,683.0,-37.775,144.93200000000004,Western Metropolitan,6567.0,POINT (144.932 -37.775),Moonee Valley - Essendon,0.0022060755873106685
Ascot Vale,70 Munro St,3,h,955000.0,Brad,14/05/2016,5.9,3032.0,3.0,1.0,1.0,263.0,-37.7753,144.9116,Western Metropolitan,6567.0,POINT (144.9116 -37.7753),Moonee Valley - Essendon,0.0022060755873106685
Ascot Vale,125 Epsom Rd,4,h,1100000.0,Nelson,15/10/2016,5.9,3032.0,4.0,2.0,5.0,559.0,-37.7791,144.9136,Western Metropolitan,6567.0,POINT (144.9136 -37.7791),Moonee Valley - Essendon,0.0022060755873106685
Ascot Vale,33 Hockey La,3,h,1255000.0,Nelson,15/10/2016,5.9,3032.0,3.0,2.0,2.0,308.0,-37.7759,144.9338,Western Metropolitan,6567.0,POINT (144.9338 -37.7759),Moonee Valley - Essendon,0.0022060755873106685
Ascot Vale,3/28 Ormond Rd,2,u,432000.0,Biggin,15/10/2016,5.9,3032.0,2.0,1.0,1.0,0.0,-37.773,144.9303,Western Metropolitan,6567.0,POINT (144.9303 -37.773),Moonee Valley - Essendon,0.0022060755873106685
Ascot Vale,7 Angler Pde,4,h,1640000.0,Raine,16/04/2016,5.9,3032.0,4.0,3.0,2.0,562.0,-37.782,144.903,Western Metropolitan,6567.0,POINT (144.903 -37.782),Moonee Valley - Essendon,0.0022060755873106685
Ascot Vale,26 Ayr St,6,h,1430000.0,Nelson,16/04/2016,5.9,3032.0,4.0,2.0,1.0,461.0,-37.78,144.9295,Western Metropolitan,6567.0,POINT (144.9295 -37.78),Moonee Valley - Essendon,0.0022060755873106685
Ascot Vale,2/127 Epsom Rd,2,u,610000.0,Brad,16/04/2016,5.9,3032.0,2.0,1.0,1.0,301.0,-37.7791,144.914,Western Metropolitan,6567.0,POINT (144.914 -37.7791),Moonee Valley - Essendon,0.0022060755873106685
Ascot Vale,57 The Parade,3,h,940000.0,Nelson,16/04/2016,5.9,3032.0,3.0,3.0,1.0,491.0,-37.7727,144.9136,Western Metropolitan,6567.0,POINT (144.9136 -37.7727),Moonee Valley - Essendon,0.0022060755873106685
Ascot Vale,62 Mirams St,3,h,890000.0,Brad,16/07/2016,5.9,3032.0,3.0,1.0,1.0,242.0,-37.7765,144.9114,Western Metropolitan,6567.0,POINT (144.9114 -37.7765),Moonee Valley - Essendon,0.0022060755873106685
Ascot Vale,67 Hurtle St,3,h,1180000.0,Brad,17/09/2016,5.9,3032.0,3.0,2.0,2.0,617.0,-37.7742,144.906,Western Metropolitan,6567.0,POINT (144.906 -37.7742),Moonee Valley - Essendon,0.0022060755873106685
Ascot Vale,95 Walter St,4,h,1480000.0,Raine,17/09/2016,5.9,3032.0,4.0,2.0,2.0,597.0,-37.7757,144.9088,Western Metropolitan,6567.0,POINT (144.9088 -37.7757),Moonee Valley - Essendon,0.0022060755873106685
Ascot Vale,15 Bayview Tce,2,h,1150000.0,Brad,18/03/2017,5.9,3032.0,2.0,1.0,1.0,387.0,-37.7734,144.9191,Western Metropolitan,6567.0,POINT (144.9191 -37.7734),Moonee Valley - Essendon,0.0022060755873106685
Ascot Vale,57 Monash St,3,h,1350000.0,Brad,18/03/2017,5.9,3032.0,3.0,1.0,3.0,575.0,-37.7828,144.9049,Western Metropolitan,6567.0,POINT (144.9049 -37.7828),Moonee Valley - Essendon,0.0022060755873106685
Ascot Vale,54 South St,5,h,1905000.0,Nelson,18/03/2017,5.9,3032.0,5.0,2.0,2.0,521.0,-37.7778,144.9261,Western Metropolitan,6567.0,POINT (144.9261 -37.7778),Moonee Valley - Essendon,0.0022060755873106685
Ascot Vale,3/8 Walter St,2,t,865000.0,Nelson,18/03/2017,5.9,3032.0,2.0,2.0,1.0,146.0,-37.7713,144.9038,Western Metropolitan,6567.0,POINT (144.9038 -37.7713),Moonee Valley - Essendon,0.0022060755873106685
Ascot Vale,2/225 Maribyrnong Rd,2,t,705000.0,Brad,18/06/2016,5.9,3032.0,2.0,2.0,1.0,113.0,-37.7712,144.9088,Western Metropolitan,6567.0,POINT (144.9088 -37.7712),Moonee Valley - Essendon,0.0022060755873106685
Ascot Vale,12/9 Milton St,2,u,442000.0,Alexkarbon,18/06/2016,5.9,3032.0,2.0,1.0,1.0,0.0,-37.7733,144.9219,Western Metropolitan,6567.0,POINT (144.9219 -37.7733),Moonee Valley - Essendon,0.0022060755873106685
Ascot Vale,107/8 Burrowes St,2,u,540000.0,Jellis,19/11/2016,5.9,3032.0,2.0,2.0,1.0,0.0,-37.7786,144.9141,Western Metropolitan,6567.0,POINT (144.9141 -37.7786),Moonee Valley - Essendon,0.0022060755873106685
Ascot Vale,21A Geddes St,3,h,1037500.0,Alexkarbon,19/11/2016,5.9,3032.0,3.0,1.0,2.0,506.0,-37.7779,144.9133,Western Metropolitan,6567.0,POINT (144.9133 -37.7779),Moonee Valley - Essendon,0.0022060755873106685
Ascot Vale,1/20 Newsom St,3,t,1050000.0,Jellis,19/11/2016,5.9,3032.0,3.0,2.0,2.0,318.0,-37.7744,144.9035,Western Metropolitan,6567.0,POINT (144.9035 -37.7744),Moonee Valley - Essendon,0.0022060755873106685
Ascot Vale,4/27 Roseberry St,2,u,440000.0,McDonald,19/11/2016,5.9,3032.0,2.0,1.0,1.0,0.0,-37.7749,144.9137,Western Metropolitan,6567.0,POINT (144.9137 -37.7749),Moonee Valley - Essendon,0.0022060755873106685
Ascot Vale,126 The Parade,2,h,1010000.0,Brad,19/11/2016,5.9,3032.0,2.0,1.0,1.0,325.0,-37.7722,144.9117,Western Metropolitan,6567.0,POINT (144.9117 -37.7722),Moonee Valley - Essendon,0.0022060755873106685
Ascot Vale,43 Bloomfield Rd,4,h,1430000.0,Nelson,22/05/2016,5.9,3032.0,4.0,2.0,0.0,418.0,-37.7766,144.9187,Western Metropolitan,6567.0,POINT (144.9187 -37.7766),Moonee Valley - Essendon,0.0022060755873106685
Ascot Vale,6/17 Geddes St,2,u,570000.0,Nelson,22/05/2016,5.9,3032.0,2.0,1.0,1.0,0.0,-37.7779,144.9137,Western Metropolitan,6567.0,POINT (144.9137 -37.7779),Moonee Valley - Essendon,0.0022060755873106685
Ascot Vale,1/60 The Parade,2,u,690000.0,Brad,22/05/2016,5.9,3032.0,2.0,1.0,1.0,0.0,-37.7728,144.9169,Western Metropolitan,6567.0,POINT (144.9169 -37.7728),Moonee Valley - Essendon,0.0022060755873106685
Ascot Vale,45 Bloomfield Rd,3,h,1291000.0,Brad,23/04/2016,5.9,3032.0,3.0,1.0,2.0,414.0,-37.7766,144.9185,Western Metropolitan,6567.0,POINT (144.9185 -37.7766),Moonee Valley - Essendon,0.0022060755873106685
Ascot Vale,21 Middle St,3,h,1130000.0,Nelson,23/04/2016,5.9,3032.0,3.0,2.0,1.0,272.0,-37.7774,144.928,Western Metropolitan,6567.0,POINT (144.928 -37.7774),Moonee Valley - Essendon,0.0022060755873106685
Ascot Vale,78 Francis St,3,h,1135000.0,Brad,24/09/2016,5.9,3032.0,3.0,1.0,1.0,296.0,-37.777,144.9176,Western Metropolitan,6567.0,POINT (144.9176 -37.777),Moonee Valley - Essendon,0.0022060755873106685
Ascot Vale,25 Geddes St,4,h,950000.0,Nelson,24/09/2016,5.9,3032.0,4.0,2.0,1.0,298.0,-37.7778,144.9131,Western Metropolitan,6567.0,POINT (144.9131 -37.7778),Moonee Valley - Essendon,0.0022060755873106685
Ascot Vale,106/246 Union Rd,3,u,790000.0,Weda,24/09/2016,5.9,3032.0,3.0,2.0,1.0,0.0,-37.7722,144.9163,Western Metropolitan,6567.0,POINT (144.9163 -37.7722),Moonee Valley - Essendon,0.0022060755873106685
Ascot Vale,18/54 Epsom Rd,2,u,390000.0,Jellis,25/02/2017,5.9,3032.0,2.0,1.0,1.0,1957.0,-37.7731,144.9074,Western Metropolitan,6567.0,POINT (144.9074 -37.7731),Moonee Valley - Essendon,0.0022060755873106685
Ascot Vale,15 Mirams St,4,h,1345000.0,Jellis,25/02/2017,5.9,3032.0,4.0,1.0,1.0,552.0,-37.7769,144.9138,Western Metropolitan,6567.0,POINT (144.9138 -37.7769),Moonee Valley - Essendon,0.0022060755873106685
Ascot Vale,44 Walter St,3,h,1381500.0,Barry,25/02/2017,5.9,3032.0,3.0,2.0,2.0,416.0,-37.7727,144.9055,Western Metropolitan,6567.0,POINT (144.9055 -37.7727),Moonee Valley - Essendon,0.0022060755873106685
Ascot Vale,25 Dalgety Dr,3,h,940000.0,Jellis,26/07/2016,5.9,3032.0,3.0,2.0,2.0,285.0,-37.7778,144.9061,Western Metropolitan,6567.0,POINT (144.9061 -37.7778),Moonee Valley - Essendon,0.0022060755873106685
Ascot Vale,7 Dalgety Dr,3,h,995000.0,Nelson,26/07/2016,5.9,3032.0,3.0,2.0,1.0,314.0,-37.7778,144.9042,Western Metropolitan,6567.0,POINT (144.9042 -37.7778),Moonee Valley - Essendon,0.0022060755873106685
Ascot Vale,37 Epsom Rd,3,h,1050000.0,Frank,26/07/2016,5.9,3032.0,3.0,1.0,3.0,536.0,-37.7728,144.9076,Western Metropolitan,6567.0,POINT (144.9076 -37.7728),Moonee Valley - Essendon,0.0022060755873106685
Ascot Vale,6 Waller Ct,3,h,786000.0,Brad,26/07/2016,5.9,3032.0,3.0,2.0,1.0,576.0,-37.7816,144.9217,Western Metropolitan,6567.0,POINT (144.9217 -37.7816),Moonee Valley - Essendon,0.0022060755873106685
Ascot Vale,17 Ascot St,2,h,705000.0,Nelson,27/06/2016,5.9,3032.0,2.0,1.0,3.0,252.0,-37.7825,144.9206,Western Metropolitan,6567.0,POINT (144.9206 -37.7825),Moonee Valley - Essendon,0.0022060755873106685
Ascot Vale,73 Kent St,2,h,760000.0,Nelson,27/06/2016,5.9,3032.0,2.0,1.0,1.0,124.0,-37.7807,144.9285,Western Metropolitan,6567.0,POINT (144.9285 -37.7807),Moonee Valley - Essendon,0.0022060755873106685
Ascot Vale,9/129 The Parade,3,u,487500.0,Hodges,27/06/2016,5.9,3032.0,3.0,1.0,3.0,0.0,-37.7723,144.9094,Western Metropolitan,6567.0,POINT (144.9094 -37.7723),Moonee Valley - Essendon,0.0022060755873106685
Ascot Vale,1 East St,3,t,1000000.0,Nelson,27/11/2016,5.9,3032.0,3.0,2.0,2.0,200.0,-37.7766,144.9277,Western Metropolitan,6567.0,POINT (144.9277 -37.7766),Moonee Valley - Essendon,0.0022060755873106685
Ascot Vale,32 Geddes St,4,h,1110000.0,Nelson,27/11/2016,5.9,3032.0,4.0,2.0,1.0,349.0,-37.7775,144.91299999999995,Western Metropolitan,6567.0,POINT (144.913 -37.7775),Moonee Valley - Essendon,0.0022060755873106685
Ascot Vale,30 Mirams St,4,h,1300000.0,Jellis,27/11/2016,5.9,3032.0,4.0,1.0,4.0,664.0,-37.7765,144.9132,Western Metropolitan,6567.0,POINT (144.9132 -37.7765),Moonee Valley - Essendon,0.0022060755873106685
Ascot Vale,43 Mirams St,3,h,1060000.0,Nelson,27/11/2016,5.9,3032.0,3.0,1.0,1.0,555.0,-37.7767,144.9125,Western Metropolitan,6567.0,POINT (144.9125 -37.7767),Moonee Valley - Essendon,0.0022060755873106685
Ascot Vale,45 Mirams St,3,h,1410000.0,Nelson,27/11/2016,5.9,3032.0,3.0,2.0,2.0,459.0,-37.7767,144.9124,Western Metropolitan,6567.0,POINT (144.9124 -37.7767),Moonee Valley - Essendon,0.0022060755873106685
Ascot Vale,1 Bloomfield Rd,3,h,1305000.0,Barry,28/05/2016,5.9,3032.0,2.0,1.0,1.0,278.0,-37.7768,144.9223,Western Metropolitan,6567.0,POINT (144.9223 -37.7768),Moonee Valley - Essendon,0.0022060755873106685
Ascot Vale,26 Milton St,3,h,932500.0,Nelson,28/05/2016,5.9,3032.0,3.0,2.0,1.0,254.0,-37.7738,144.9215,Western Metropolitan,6567.0,POINT (144.9215 -37.7738),Moonee Valley - Essendon,0.0022060755873106685
Ascot Vale,10 Ayr St,3,h,965000.0,Alexkarbon,28/08/2016,5.9,3032.0,3.0,1.0,0.0,216.0,-37.7792,144.9297,Western Metropolitan,6567.0,POINT (144.9297 -37.7792),Moonee Valley - Essendon,0.0022060755873106685
Ascot Vale,58 Bloomfield Rd,3,h,1215000.0,Stockdale,28/08/2016,5.9,3032.0,3.0,1.0,1.0,452.0,-37.7762,144.9174,Western Metropolitan,6567.0,POINT (144.9174 -37.7762),Moonee Valley - Essendon,0.0022060755873106685
Ascot Vale,1/91 Epsom Rd,2,u,545000.0,Nelson,28/08/2016,5.9,3032.0,2.0,1.0,2.0,194.0,-37.7772,144.9118,Western Metropolitan,6567.0,POINT (144.9118 -37.7772),Moonee Valley - Essendon,0.0022060755873106685
Ascot Vale,5 Doncaster St,4,h,1705000.0,Jellis,30/07/2016,5.9,3032.0,4.0,2.0,4.0,598.0,-37.7774,144.9104,Western Metropolitan,6567.0,POINT (144.9104 -37.7774),Moonee Valley - Essendon,0.0022060755873106685
Ascot Vale,6 McCully St,3,h,970000.0,Nelson,30/07/2016,5.9,3032.0,2.0,1.0,1.0,194.0,-37.7756,144.921,Western Metropolitan,6567.0,POINT (144.921 -37.7756),Moonee Valley - Essendon,0.0022060755873106685
Ascot Vale,75 Munro St,2,h,925000.0,Barry,30/07/2016,5.9,3032.0,2.0,1.0,1.0,407.0,-37.7756,144.9105,Western Metropolitan,6567.0,POINT (144.9105 -37.7756),Moonee Valley - Essendon,0.0022060755873106685
Ashburton,61 Dent St,4,h,2650000.0,Marshall,3/09/2016,11.0,3147.0,4.0,3.0,2.0,753.0,-37.8669,145.0767,Southern Metropolitan,3052.0,POINT (145.0767 -37.8669),Boroondara  - Camberwell S.,0.0018623135983943458
Ashburton,69 Albion Rd,3,h,1670000.0,Jellis,3/12/2016,11.0,3147.0,3.0,2.0,2.0,599.0,-37.8673,145.0688,Southern Metropolitan,3052.0,POINT (145.0688 -37.8673),Boroondara  - Camberwell S.,0.0018623135983943458
Ashburton,1/17 Ashburn Gr,3,t,955000.0,Buxton,3/12/2016,11.0,3147.0,3.0,2.0,2.0,203.0,-37.8655,145.0807,Southern Metropolitan,3052.0,POINT (145.0807 -37.8655),Boroondara  - Camberwell S.,0.0018623135983943458
Ashburton,3/39 Solway St,3,t,2050000.0,Fletchers,3/12/2016,11.0,3147.0,3.0,3.0,4.0,310.0,-37.874,145.0714,Southern Metropolitan,3052.0,POINT (145.0714 -37.874),Boroondara  - Camberwell S.,0.0018623135983943458
Ashburton,101/218 High St,2,u,500000.0,Fletchers,4/03/2017,11.0,3147.0,2.0,1.0,1.0,710.0,-37.8636,145.0794,Southern Metropolitan,3052.0,POINT (145.0794 -37.8636),Boroondara  - Camberwell S.,0.0018623135983943458
Ashburton,51 Victory Bvd,2,h,1575000.0,Jellis,4/03/2017,11.0,3147.0,2.0,1.0,2.0,679.0,-37.869,145.0822,Southern Metropolitan,3052.0,POINT (145.0822 -37.869),Boroondara  - Camberwell S.,0.0018623135983943458
Ashburton,3 Dunlop St,3,h,1555000.0,Jellis,4/06/2016,11.0,3147.0,3.0,2.0,2.0,731.0,-37.8666,145.0676,Southern Metropolitan,3052.0,POINT (145.0676 -37.8666),Boroondara  - Camberwell S.,0.0018623135983943458
Ashburton,16a Nicholas St,3,h,1100000.0,Marshall,8/10/2016,11.0,3147.0,3.0,3.0,2.0,276.0,-37.8699,145.0778,Southern Metropolitan,3052.0,POINT (145.0778 -37.8699),Boroondara  - Camberwell S.,0.0018623135983943458
Ashburton,5 Nicholas St,3,h,1337000.0,Buxton,8/10/2016,11.0,3147.0,3.0,1.0,2.0,583.0,-37.8685,145.0786,Southern Metropolitan,3052.0,POINT (145.0786 -37.8685),Boroondara  - Camberwell S.,0.0018623135983943458
Ashburton,115 Ashburn Gr,8,h,2950000.0,hockingstuart,10/09/2016,11.0,3147.0,9.0,7.0,4.0,1472.0,-37.8729,145.0788,Southern Metropolitan,3052.0,POINT (145.0788 -37.8729),Boroondara  - Camberwell S.,0.0018623135983943458
Ashburton,33 Eleanor St,4,h,2215000.0,Marshall,10/09/2016,11.0,3147.0,4.0,2.0,1.0,681.0,-37.8612,145.0858,Southern Metropolitan,3052.0,POINT (145.0858 -37.8612),Boroondara  - Camberwell S.,0.0018623135983943458
Ashburton,1/1 Nairn St,3,h,1518000.0,Jellis,10/09/2016,11.0,3147.0,3.0,2.0,2.0,516.0,-37.8675,145.0668,Southern Metropolitan,3052.0,POINT (145.0668 -37.8675),Boroondara  - Camberwell S.,0.0018623135983943458
Ashburton,9 Gona Ct,3,h,1710000.0,hockingstuart,10/12/2016,11.0,3147.0,3.0,1.0,2.0,806.0,-37.8695,145.084,Southern Metropolitan,3052.0,POINT (145.084 -37.8695),Boroondara  - Camberwell S.,0.0018623135983943458
Ashburton,45 Yuile St,3,h,1655000.0,Jellis,10/12/2016,11.0,3147.0,3.0,1.0,3.0,780.0,-37.8599,145.0815,Southern Metropolitan,3052.0,POINT (145.0815 -37.8599),Boroondara  - Camberwell S.,0.0018623135983943458
Ashburton,47 Yuile St,4,h,1550000.0,Marshall,12/11/2016,11.0,3147.0,4.0,2.0,2.0,780.0,-37.86,145.0817,Southern Metropolitan,3052.0,POINT (145.0817 -37.86),Boroondara  - Camberwell S.,0.0018623135983943458
Ashburton,6a Glen Rd,3,h,1662000.0,Jellis,14/05/2016,11.0,3147.0,3.0,2.0,2.0,351.0,-37.8742,145.07,Southern Metropolitan,3052.0,POINT (145.07 -37.8742),Boroondara  - Camberwell S.,0.0018623135983943458
Ashburton,18 Glen Rd,3,h,1665000.0,Jellis,15/10/2016,11.0,3147.0,3.0,2.0,3.0,702.0,-37.8737,145.0695,Southern Metropolitan,3052.0,POINT (145.0695 -37.8737),Boroondara  - Camberwell S.,0.0018623135983943458
Ashburton,95 Nicholas St,2,h,1445000.0,Jellis,16/04/2016,11.0,3147.0,2.0,1.0,2.0,704.0,-37.8745,145.0738,Southern Metropolitan,3052.0,POINT (145.0738 -37.8745),Boroondara  - Camberwell S.,0.0018623135983943458
Ashburton,29A Yuile St,5,h,3510000.0,Jellis,18/03/2017,11.0,3147.0,5.0,5.0,2.0,755.0,-37.8598,145.0796,Southern Metropolitan,3052.0,POINT (145.0796 -37.8598),Boroondara  - Camberwell S.,0.0018623135983943458
Ashburton,3/75 Victory Bvd,3,t,968000.0,Jellis,18/06/2016,11.0,3147.0,3.0,1.0,1.0,227.0,-37.8709,145.0857,Southern Metropolitan,3052.0,POINT (145.0857 -37.8709),Boroondara  - Camberwell S.,0.0018623135983943458
Ashburton,2/17 Ashburn Gr,3,t,900000.0,Jellis,19/11/2016,11.0,3147.0,3.0,2.0,2.0,153.0,-37.8655,145.0808,Southern Metropolitan,3052.0,POINT (145.0808 -37.8655),Boroondara  - Camberwell S.,0.0018623135983943458
Ashburton,4 Baker Pde,3,h,1500000.0,hockingstuart,22/05/2016,11.0,3147.0,3.0,1.0,2.0,545.0,-37.8605,145.0833,Southern Metropolitan,3052.0,POINT (145.0833 -37.8605),Boroondara  - Camberwell S.,0.0018623135983943458
Ashburton,15 Comas Gr,5,h,2752000.0,Jellis,22/08/2016,11.0,3147.0,6.0,4.0,2.0,1075.0,-37.8714,145.07299999999995,Southern Metropolitan,3052.0,POINT (145.073 -37.8714),Boroondara  - Camberwell S.,0.0018623135983943458
Ashburton,3 Mustang Ct,3,h,1500000.0,Jellis,22/08/2016,11.0,3147.0,3.0,2.0,2.0,710.0,-37.8653,145.0897,Southern Metropolitan,3052.0,POINT (145.0897 -37.8653),Boroondara  - Camberwell S.,0.0018623135983943458
Ashburton,63 Dent St,4,h,1800000.0,Jellis,25/02/2017,11.0,3147.0,4.0,2.0,4.0,749.0,-37.8669,145.077,Southern Metropolitan,3052.0,POINT (145.077 -37.8669),Boroondara  - Camberwell S.,0.0018623135983943458
Ashburton,4 Vears Rd,3,h,1830000.0,Jellis,25/02/2017,11.0,3147.0,3.0,2.0,3.0,724.0,-37.8619,145.0879,Southern Metropolitan,3052.0,POINT (145.0879 -37.8619),Boroondara  - Camberwell S.,0.0018623135983943458
Ashburton,14 Lucerne St,3,h,1415000.0,Buxton,27/06/2016,11.0,3147.0,3.0,1.0,1.0,605.0,-37.8703,145.0774,Southern Metropolitan,3052.0,POINT (145.0774 -37.8703),Boroondara  - Camberwell S.,0.0018623135983943458
Ashburton,5 Pitt St,2,h,1440000.0,Jellis,27/06/2016,11.0,3147.0,2.0,1.0,1.0,687.0,-37.872,145.0692,Southern Metropolitan,3052.0,POINT (145.0692 -37.872),Boroondara  - Camberwell S.,0.0018623135983943458
Ashburton,1/65 Ashburn Gr,4,t,1250000.0,Noel,27/11/2016,11.0,3147.0,4.0,2.0,2.0,321.0,-37.8693,145.08,Southern Metropolitan,3052.0,POINT (145.08 -37.8693),Boroondara  - Camberwell S.,0.0018623135983943458
Ashburton,12 Meaden St,3,h,1422000.0,Buxton,27/11/2016,11.0,3147.0,3.0,1.0,2.0,583.0,-37.8679,145.0781,Southern Metropolitan,3052.0,POINT (145.0781 -37.8679),Boroondara  - Camberwell S.,0.0018623135983943458
Ashburton,48 Nicholas St,5,h,1600000.0,Marshall,27/11/2016,11.0,3147.0,5.0,3.0,4.0,700.0,-37.8724,145.0758,Southern Metropolitan,3052.0,POINT (145.0758 -37.8724),Boroondara  - Camberwell S.,0.0018623135983943458
Ashburton,5 Taylor St,4,h,1860000.0,Jellis,27/11/2016,11.0,3147.0,4.0,2.0,3.0,696.0,-37.8711,145.0746,Southern Metropolitan,3052.0,POINT (145.0746 -37.8711),Boroondara  - Camberwell S.,0.0018623135983943458
Ashburton,1/7 Y St,3,t,1710000.0,Marshall,27/11/2016,11.0,3147.0,3.0,2.0,2.0,295.0,-37.8624,145.0798,Southern Metropolitan,3052.0,POINT (145.0798 -37.8624),Boroondara  - Camberwell S.,0.0018623135983943458
Ashburton,33 Highgate Gr,4,h,1790000.0,hockingstuart,28/05/2016,11.0,3147.0,4.0,2.0,2.0,514.0,-37.8664,145.0772,Southern Metropolitan,3052.0,POINT (145.0772 -37.8664),Boroondara  - Camberwell S.,0.0018623135983943458
Ashburton,9 Pitt St,4,h,1950000.0,Tim,28/05/2016,11.0,3147.0,4.0,2.0,2.0,844.0,-37.8715,145.0688,Southern Metropolitan,3052.0,POINT (145.0688 -37.8715),Boroondara  - Camberwell S.,0.0018623135983943458
Ashburton,9 Ward St,3,h,1600000.0,Fletchers,28/05/2016,11.0,3147.0,3.0,1.0,2.0,637.0,-37.8645,145.0797,Southern Metropolitan,3052.0,POINT (145.0797 -37.8645),Boroondara  - Camberwell S.,0.0018623135983943458
Ashburton,159 Ashburn Gr,3,h,1320000.0,Marshall,28/08/2016,11.0,3147.0,3.0,1.0,2.0,1063.0,-37.8752,145.0754,Southern Metropolitan,3052.0,POINT (145.0754 -37.8752),Boroondara  - Camberwell S.,0.0018623135983943458
Ashburton,19 Poulter St,3,h,1650000.0,Marshall,28/08/2016,11.0,3147.0,3.0,1.0,1.0,697.0,-37.8636,145.0903,Southern Metropolitan,3052.0,POINT (145.0903 -37.8636),Boroondara  - Camberwell S.,0.0018623135983943458
Ashwood,18 Teck St,2,h,995000.0,Tim,3/09/2016,12.2,3147.0,2.0,1.0,1.0,583.0,-37.8693,145.1082,Southern Metropolitan,2894.0,POINT (145.1082 -37.8693),Monash - Waverley West,0.0032891480077519106
Ashwood,28 Raymond St,3,h,1250000.0,Woodards,3/12/2016,12.2,3147.0,3.0,1.0,1.0,842.0,-37.867,145.1092,Southern Metropolitan,2894.0,POINT (145.1092 -37.867),Monash - Waverley West,0.0032891480077519106
Ashwood,31a Douglas St,3,u,1045000.0,Tim,4/03/2017,12.2,3147.0,3.0,2.0,2.0,467.0,-37.8639,145.0968,Southern Metropolitan,2894.0,POINT (145.0968 -37.8639),Monash - Waverley West,0.0032891480077519106
Ashwood,1/53 Winbirra Pde,4,h,1200000.0,Purplebricks,4/03/2017,12.2,3147.0,4.0,3.0,2.0,372.0,-37.8716,145.0999,Southern Metropolitan,2894.0,POINT (145.0999 -37.8716),Monash - Waverley West,0.0032891480077519106
Ashwood,18 Montrose St,2,h,1075000.0,Jellis,4/06/2016,12.2,3147.0,2.0,1.0,2.0,695.0,-37.8694,145.0944,Southern Metropolitan,2894.0,POINT (145.0944 -37.8694),Monash - Waverley West,0.0032891480077519106
Ashwood,4 Scenic Dr,4,h,1500000.0,Fletchers,6/08/2016,12.2,3147.0,2.0,2.0,2.0,621.0,-37.8647,145.1023,Southern Metropolitan,2894.0,POINT (145.1023 -37.8647),Monash - Waverley West,0.0032891480077519106
Ashwood,8 Rocklands Rd,3,h,1120000.0,Tim,7/05/2016,12.2,3147.0,3.0,1.0,2.0,723.0,-37.8642,145.1109,Southern Metropolitan,2894.0,POINT (145.1109 -37.8642),Monash - Waverley West,0.0032891480077519106
Ashwood,1/7 Farmer St,2,t,700000.0,hockingstuart,7/11/2016,12.2,3147.0,2.0,1.0,2.0,367.0,-37.8662,145.109,Southern Metropolitan,2894.0,POINT (145.109 -37.8662),Monash - Waverley West,0.0032891480077519106
Ashwood,1/136 High Street Rd,3,h,761000.0,Fletchers,7/11/2016,12.2,3147.0,3.0,2.0,4.0,400.0,-37.8675,145.106,Southern Metropolitan,2894.0,POINT (145.106 -37.8675),Monash - Waverley West,0.0032891480077519106
Ashwood,10 Maroondah Rd,4,h,1270000.0,Buxton,8/10/2016,12.2,3147.0,4.0,2.0,1.0,724.0,-37.8651,145.1109,Southern Metropolitan,2894.0,POINT (145.1109 -37.8651),Monash - Waverley West,0.0032891480077519106
Ashwood,4 Peppermint Ct,4,h,1510000.0,Buxton,8/10/2016,12.2,3147.0,4.0,2.0,2.0,526.0,-37.8661,145.1013,Southern Metropolitan,2894.0,POINT (145.1013 -37.8661),Monash - Waverley West,0.0032891480077519106
Ashwood,35 Douglas St,3,h,1365000.0,Fletchers,10/09/2016,12.2,3147.0,3.0,1.0,1.0,792.0,-37.864,145.0972,Southern Metropolitan,2894.0,POINT (145.0972 -37.864),Monash - Waverley West,0.0032891480077519106
Ashwood,95 Huntingdale Rd,4,h,1100000.0,Tim,10/12/2016,12.2,3147.0,3.0,2.0,2.0,803.0,-37.8621,145.1126,Southern Metropolitan,2894.0,POINT (145.1126 -37.8621),Monash - Waverley West,0.0032891480077519106
Ashwood,8 Maroondah Rd,4,h,1415000.0,Buxton,13/08/2016,12.2,3147.0,4.0,3.0,2.0,724.0,-37.8651,145.1107,Southern Metropolitan,2894.0,POINT (145.1107 -37.8651),Monash - Waverley West,0.0032891480077519106
Ashwood,1/7 Murra Ct,2,u,690000.0,Ray,14/05/2016,12.2,3147.0,2.0,1.0,1.0,216.0,-37.8711,145.1017,Southern Metropolitan,2894.0,POINT (145.1017 -37.8711),Monash - Waverley West,0.0032891480077519106
Ashwood,58 Ashwood Dr,3,h,1631000.0,Jellis,15/10/2016,12.2,3147.0,3.0,2.0,3.0,782.0,-37.8621,145.1021,Southern Metropolitan,2894.0,POINT (145.1021 -37.8621),Monash - Waverley West,0.0032891480077519106
Ashwood,3 Harold St,4,h,1500000.0,Buxton,15/10/2016,12.2,3147.0,4.0,2.0,1.0,593.0,-37.8655,145.096,Southern Metropolitan,2894.0,POINT (145.096 -37.8655),Monash - Waverley West,0.0032891480077519106
Ashwood,9 Katta Ct,3,h,1060000.0,Harcourts,16/07/2016,12.2,3147.0,2.0,1.0,2.0,772.0,-37.8707,145.1036,Southern Metropolitan,2894.0,POINT (145.1036 -37.8707),Monash - Waverley West,0.0032891480077519106
Ashwood,16 Scenic Dr,5,h,1529500.0,Buxton,17/09/2016,12.2,3147.0,5.0,3.0,2.0,585.0,-37.8637,145.1024,Southern Metropolitan,2894.0,POINT (145.1024 -37.8637),Monash - Waverley West,0.0032891480077519106
Ashwood,4/36 Queens Pde,2,u,600000.0,Noel,18/03/2017,12.2,3147.0,2.0,1.0,1.0,153.0,-37.8696,145.0962,Southern Metropolitan,2894.0,POINT (145.0962 -37.8696),Monash - Waverley West,0.0032891480077519106
Ashwood,4/24 Mulgrave St,2,u,535000.0,Woodards,18/06/2016,12.2,3147.0,2.0,1.0,1.0,72.0,-37.8702,145.1042,Southern Metropolitan,2894.0,POINT (145.1042 -37.8702),Monash - Waverley West,0.0032891480077519106
Ashwood,147 Huntingdale Rd,3,h,785000.0,Buxton,19/11/2016,12.2,3147.0,3.0,1.0,1.0,557.0,-37.8671,145.1117,Southern Metropolitan,2894.0,POINT (145.1117 -37.8671),Monash - Waverley West,0.0032891480077519106
Ashwood,17 Parkhill Dr,4,h,1240000.0,Tim,19/11/2016,12.2,3147.0,4.0,2.0,2.0,766.0,-37.8629,145.1097,Southern Metropolitan,2894.0,POINT (145.1097 -37.8629),Monash - Waverley West,0.0032891480077519106
Ashwood,2/6 Murra Ct,2,u,700000.0,hockingstuart,22/08/2016,12.2,3147.0,2.0,1.0,2.0,192.0,-37.8709,145.102,Southern Metropolitan,2894.0,POINT (145.102 -37.8709),Monash - Waverley West,0.0032891480077519106
Ashwood,12 Leonard St,4,h,1350000.0,Buxton,24/09/2016,12.2,3147.0,4.0,2.0,1.0,727.0,-37.8669,145.1106,Southern Metropolitan,2894.0,POINT (145.1106 -37.8669),Monash - Waverley West,0.0032891480077519106
Ashwood,4 Teck St,2,h,1110000.0,Fletchers,24/09/2016,12.2,3147.0,2.0,1.0,1.0,586.0,-37.8683,145.1082,Southern Metropolitan,2894.0,POINT (145.1082 -37.8683),Monash - Waverley West,0.0032891480077519106
Ashwood,14 Ashwood Dr,3,h,1305000.0,Jellis,25/02/2017,12.2,3147.0,3.0,1.0,1.0,760.0,-37.858,145.1038,Southern Metropolitan,2894.0,POINT (145.1038 -37.858),Monash - Waverley West,0.0032891480077519106
Ashwood,1/2 Condah Ct,3,h,855000.0,Noel,25/02/2017,12.2,3147.0,3.0,2.0,1.0,320.0,-37.87,145.1103,Southern Metropolitan,2894.0,POINT (145.1103 -37.87),Monash - Waverley West,0.0032891480077519106
Ashwood,1/16 Raymond St,3,t,900500.0,Jellis,27/11/2016,12.2,3147.0,3.0,2.0,2.0,256.0,-37.8655,145.1096,Southern Metropolitan,2894.0,POINT (145.1096 -37.8655),Monash - Waverley West,0.0032891480077519106
Ashwood,4 Newbury Ct,3,h,1200000.0,Buxton,28/05/2016,12.2,3147.0,3.0,2.0,2.0,839.0,-37.8614,145.1098,Southern Metropolitan,2894.0,POINT (145.1098 -37.8614),Monash - Waverley West,0.0032891480077519106
Ashwood,2/53 Salisbury Rd,3,t,830000.0,Barry,28/08/2016,12.2,3147.0,2.0,1.0,2.0,212.0,-37.8723,145.1089,Southern Metropolitan,2894.0,POINT (145.1089 -37.8723),Monash - Waverley West,0.0032891480077519106
Avondale Heights,8 Norma Ct,3,h,850000.0,Moonee,3/09/2016,10.5,3034.0,3.0,1.0,1.0,593.0,-37.7677,144.8674,Western Metropolitan,4502.0,POINT (144.8674 -37.7677),Moonee Valley - West,0.002319174353032621
Avondale Heights,9 Rogerson St,3,h,750000.0,Moonee,3/09/2016,10.5,3034.0,3.0,1.0,1.0,0.0,-37.7634,144.8611,Western Metropolitan,4502.0,POINT (144.8611 -37.7634),Moonee Valley - West,0.002319174353032621
Avondale Heights,157 Canning St,3,t,851000.0,Nelson,3/12/2016,10.5,3034.0,3.0,3.0,1.0,557.0,-37.77,144.8572,Western Metropolitan,4502.0,POINT (144.8572 -37.77),Moonee Valley - West,0.002319174353032621
Avondale Heights,105 Canning St,3,h,848000.0,Nelson,4/03/2017,10.5,3034.0,3.0,1.0,2.0,542.0,-37.7706,144.8629,Western Metropolitan,4502.0,POINT (144.8629 -37.7706),Moonee Valley - West,0.002319174353032621
Avondale Heights,36 Wood St,4,h,806000.0,Moonee,4/03/2017,10.5,3034.0,4.0,2.0,1.0,350.0,-37.7676,144.859,Western Metropolitan,4502.0,POINT (144.859 -37.7676),Moonee Valley - West,0.002319174353032621
Avondale Heights,2 Arbor Tce,4,h,1155000.0,Nelson,4/06/2016,10.5,3034.0,3.0,2.0,2.0,569.0,-37.7654,144.8655,Western Metropolitan,4502.0,POINT (144.8655 -37.7654),Moonee Valley - West,0.002319174353032621
Avondale Heights,3 Karen Ct,3,h,670000.0,Nelson,4/06/2016,10.5,3034.0,3.0,2.0,2.0,671.0,-37.7593,144.871,Western Metropolitan,4502.0,POINT (144.871 -37.7593),Moonee Valley - West,0.002319174353032621
Avondale Heights,6 Lovett Dr,4,h,1200000.0,Nelson,4/06/2016,10.5,3034.0,4.0,5.0,4.0,673.0,-37.7545,144.8736,Western Metropolitan,4502.0,POINT (144.8736 -37.7545),Moonee Valley - West,0.002319174353032621
Avondale Heights,12 Skewes St,3,h,636000.0,Nelson,4/06/2016,10.5,3034.0,2.0,1.0,2.0,571.0,-37.7605,144.8581,Western Metropolitan,4502.0,POINT (144.8581 -37.7605),Moonee Valley - West,0.002319174353032621
Avondale Heights,68 Thompson St,3,h,680000.0,Nelson,6/08/2016,10.5,3034.0,3.0,1.0,2.0,570.0,-37.7591,144.8542,Western Metropolitan,4502.0,POINT (144.8542 -37.7591),Moonee Valley - West,0.002319174353032621
Avondale Heights,14 Lovett Dr,4,h,1160000.0,Moonee,7/05/2016,10.5,3034.0,4.0,3.0,2.0,789.0,-37.7537,144.8729,Western Metropolitan,4502.0,POINT (144.8729 -37.7537),Moonee Valley - West,0.002319174353032621
Avondale Heights,31 Duke St,3,h,750000.0,Barry,8/10/2016,10.5,3034.0,3.0,1.0,1.0,529.0,-37.7721,144.8576,Western Metropolitan,4502.0,POINT (144.8576 -37.7721),Moonee Valley - West,0.002319174353032621
Avondale Heights,97 Military Rd,3,h,627500.0,Moonee,8/10/2016,10.5,3034.0,3.0,1.0,1.0,550.0,-37.7632,144.8622,Western Metropolitan,4502.0,POINT (144.8622 -37.7632),Moonee Valley - West,0.002319174353032621
Avondale Heights,21 River Dr,3,t,880000.0,Moonee,8/10/2016,10.5,3034.0,3.0,2.0,2.0,339.0,-37.7519,144.8534,Western Metropolitan,4502.0,POINT (144.8534 -37.7519),Moonee Valley - West,0.002319174353032621
Avondale Heights,3 Clive Ct,4,h,950000.0,Moonee,10/12/2016,10.5,3034.0,4.0,3.0,3.0,761.0,-37.7524,144.8714,Western Metropolitan,4502.0,POINT (144.8714 -37.7524),Moonee Valley - West,0.002319174353032621
Avondale Heights,22 Warrick Ct,4,h,1600000.0,Nelson,10/12/2016,10.5,3034.0,4.0,3.0,3.0,1801.0,-37.7532,144.8766,Western Metropolitan,4502.0,POINT (144.8766 -37.7532),Moonee Valley - West,0.002319174353032621
Avondale Heights,2/6 Nelson Ct,2,t,585000.0,Barry,11/02/2017,10.5,3034.0,2.0,1.0,1.0,136.0,-37.7623,144.8613,Western Metropolitan,4502.0,POINT (144.8613 -37.7623),Moonee Valley - West,0.002319174353032621
Avondale Heights,7 Monmouth St,3,h,650000.0,Moonee,15/10/2016,10.5,3034.0,3.0,1.0,3.0,574.0,-37.7627,144.857,Western Metropolitan,4502.0,POINT (144.857 -37.7627),Moonee Valley - West,0.002319174353032621
Avondale Heights,15 River Dr,3,h,725000.0,Moonee,15/10/2016,10.5,3034.0,3.0,1.0,4.0,606.0,-37.752,144.85399999999996,Western Metropolitan,4502.0,POINT (144.854 -37.752),Moonee Valley - West,0.002319174353032621
Avondale Heights,16a Arbor Tce,3,u,665000.0,Brad,16/04/2016,10.5,3034.0,3.0,2.0,1.0,289.0,-37.7644,144.8657,Western Metropolitan,4502.0,POINT (144.8657 -37.7644),Moonee Valley - West,0.002319174353032621
Avondale Heights,40a Herbert St,3,h,560500.0,Nelson,16/04/2016,10.5,3034.0,3.0,1.0,1.0,177.0,-37.7664,144.8583,Western Metropolitan,4502.0,POINT (144.8583 -37.7664),Moonee Valley - West,0.002319174353032621
Avondale Heights,185 Military Rd,3,h,615000.0,Moonee,16/07/2016,10.5,3034.0,3.0,1.0,2.0,649.0,-37.758,144.86,Western Metropolitan,4502.0,POINT (144.86 -37.758),Moonee Valley - West,0.002319174353032621
Avondale Heights,33 Wood St,3,h,845000.0,Nelson,16/07/2016,10.5,3034.0,3.0,1.0,3.0,704.0,-37.7681,144.8592,Western Metropolitan,4502.0,POINT (144.8592 -37.7681),Moonee Valley - West,0.002319174353032621
Avondale Heights,14 Herbert St,3,h,585000.0,Barry,17/09/2016,10.5,3034.0,3.0,1.0,2.0,322.0,-37.7686,144.8576,Western Metropolitan,4502.0,POINT (144.8576 -37.7686),Moonee Valley - West,0.002319174353032621
Avondale Heights,2/10 Military Rd,2,u,440000.0,Nelson,18/03/2017,10.5,3034.0,2.0,1.0,1.0,263.0,-37.7697,144.8657,Western Metropolitan,4502.0,POINT (144.8657 -37.7697),Moonee Valley - West,0.002319174353032621
Avondale Heights,9 Willow Dr,3,h,850000.0,Moonee,18/03/2017,10.5,3034.0,3.0,1.0,2.0,766.0,-37.7522,144.8518,Western Metropolitan,4502.0,POINT (144.8518 -37.7522),Moonee Valley - West,0.002319174353032621
Avondale Heights,8 Westminster Dr,5,h,850000.0,Moonee,18/06/2016,10.5,3034.0,5.0,2.0,4.0,574.0,-37.7639,144.8615,Western Metropolitan,4502.0,POINT (144.8615 -37.7639),Moonee Valley - West,0.002319174353032621
Avondale Heights,8 Herbert St,3,h,705000.0,Nelson,22/05/2016,10.5,3034.0,3.0,1.0,1.0,581.0,-37.7691,144.8575,Western Metropolitan,4502.0,POINT (144.8575 -37.7691),Moonee Valley - West,0.002319174353032621
Avondale Heights,2 Hillman Ct,4,h,1100000.0,Brad,22/05/2016,10.5,3034.0,4.0,3.0,2.0,873.0,-37.7609,144.8639,Western Metropolitan,4502.0,POINT (144.8639 -37.7609),Moonee Valley - West,0.002319174353032621
Avondale Heights,20 Westminster Dr,3,h,892500.0,Nelson,22/05/2016,10.5,3034.0,3.0,1.0,1.0,586.0,-37.7642,144.8603,Western Metropolitan,4502.0,POINT (144.8603 -37.7642),Moonee Valley - West,0.002319174353032621
Avondale Heights,8 Moffat St,3,h,695000.0,HAR,23/04/2016,10.5,3034.0,3.0,1.0,2.0,588.0,-37.771,144.8586,Western Metropolitan,4502.0,POINT (144.8586 -37.771),Moonee Valley - West,0.002319174353032621
Avondale Heights,1/24 Bordeaux St,2,h,522500.0,Nelson,24/09/2016,10.5,3034.0,2.0,1.0,1.0,220.0,-37.756,144.8641,Western Metropolitan,4502.0,POINT (144.8641 -37.756),Moonee Valley - West,0.002319174353032621
Avondale Heights,72 Military Rd,4,h,680000.0,Nelson,24/09/2016,10.5,3034.0,4.0,2.0,2.0,554.0,-37.7649,144.8633,Western Metropolitan,4502.0,POINT (144.8633 -37.7649),Moonee Valley - West,0.002319174353032621
Avondale Heights,1/5 South Tce,3,u,500000.0,Nelson,24/09/2016,10.5,3034.0,3.0,1.0,1.0,260.0,-37.7507,144.8576,Western Metropolitan,4502.0,POINT (144.8576 -37.7507),Moonee Valley - West,0.002319174353032621
Avondale Heights,1/4 Weyburn Pl,2,t,550000.0,Moonee,24/09/2016,10.5,3034.0,2.0,1.0,2.0,158.0,-37.7592,144.8681,Western Metropolitan,4502.0,POINT (144.8681 -37.7592),Moonee Valley - West,0.002319174353032621
Avondale Heights,19 Clarendon St,3,h,730000.0,Jas,25/02/2017,10.5,3034.0,3.0,2.0,2.0,705.0,-37.766,144.8596,Western Metropolitan,4502.0,POINT (144.8596 -37.766),Moonee Valley - West,0.002319174353032621
Avondale Heights,2 Drake Ct,3,h,875000.0,Edward,25/02/2017,10.5,3034.0,3.0,1.0,3.0,812.0,-37.765,144.8578,Western Metropolitan,4502.0,POINT (144.8578 -37.765),Moonee Valley - West,0.002319174353032621
Avondale Heights,11 South Tce,3,h,850000.0,Moonee,25/02/2017,10.5,3034.0,3.0,2.0,8.0,585.0,-37.751,144.8571,Western Metropolitan,4502.0,POINT (144.8571 -37.751),Moonee Valley - West,0.002319174353032621
Avondale Heights,61 Doyle St,3,h,635000.0,Moonee,26/07/2016,10.5,3034.0,3.0,1.0,1.0,597.0,-37.7568,144.8572,Western Metropolitan,4502.0,POINT (144.8572 -37.7568),Moonee Valley - West,0.002319174353032621
Avondale Heights,109 North Rd,4,h,762000.0,Nelson,26/07/2016,10.5,3034.0,4.0,2.0,2.0,589.0,-37.7573,144.8534,Western Metropolitan,4502.0,POINT (144.8534 -37.7573),Moonee Valley - West,0.002319174353032621
Avondale Heights,2/4 Carmyle Ct,2,u,411000.0,Barry,27/11/2016,10.5,3034.0,2.0,1.0,1.0,0.0,-37.7608,144.863,Western Metropolitan,4502.0,POINT (144.863 -37.7608),Moonee Valley - West,0.002319174353032621
Avondale Heights,10 Intervale Dr,4,h,790000.0,Barry,27/11/2016,10.5,3034.0,4.0,2.0,2.0,570.0,-37.7513,144.859,Western Metropolitan,4502.0,POINT (144.859 -37.7513),Moonee Valley - West,0.002319174353032621
Avondale Heights,328 Milleara Rd,4,h,605000.0,Barry,27/11/2016,10.5,3034.0,4.0,1.0,0.0,569.0,-37.7563,144.8601,Western Metropolitan,4502.0,POINT (144.8601 -37.7563),Moonee Valley - West,0.002319174353032621
Avondale Heights,10 Skewes St,3,h,805000.0,Nelson,27/11/2016,10.5,3034.0,3.0,2.0,2.0,593.0,-37.7607,144.8581,Western Metropolitan,4502.0,POINT (144.8581 -37.7607),Moonee Valley - West,0.002319174353032621
Avondale Heights,62 Skewes St,4,h,890000.0,Moonee,27/11/2016,10.5,3034.0,4.0,2.0,4.0,585.0,-37.757,144.8566,Western Metropolitan,4502.0,POINT (144.8566 -37.757),Moonee Valley - West,0.002319174353032621
Avondale Heights,49 Rogerson St,3,h,795000.0,Barry,28/05/2016,10.5,3034.0,3.0,1.0,1.0,549.0,-37.7644,144.8575,Western Metropolitan,4502.0,POINT (144.8575 -37.7644),Moonee Valley - West,0.002319174353032621
Avondale Heights,43 Skewes St,3,h,634000.0,Nelson,28/05/2016,10.5,3034.0,4.0,2.0,1.0,582.0,-37.7584,144.8568,Western Metropolitan,4502.0,POINT (144.8568 -37.7584),Moonee Valley - West,0.002319174353032621
Avondale Heights,63 Doyle St,3,h,642000.0,Moonee,28/08/2016,10.5,3034.0,3.0,1.0,1.0,590.0,-37.7567,144.8572,Western Metropolitan,4502.0,POINT (144.8572 -37.7567),Moonee Valley - West,0.002319174353032621
Avondale Heights,235 Military Rd,3,h,863000.0,Barry,28/08/2016,10.5,3034.0,3.0,2.0,3.0,638.0,-37.7546,144.8585,Western Metropolitan,4502.0,POINT (144.8585 -37.7546),Moonee Valley - West,0.002319174353032621
Avondale Heights,57 North Rd,3,h,740000.0,Moonee,28/08/2016,10.5,3034.0,3.0,1.0,2.0,607.0,-37.7546,144.857,Western Metropolitan,4502.0,POINT (144.857 -37.7546),Moonee Valley - West,0.002319174353032621
Balaclava,18 Linton St,4,h,1819000.0,Gary,3/09/2016,6.6,3183.0,3.0,2.0,1.0,244.0,-37.8668,144.9928,Southern Metropolitan,2952.0,POINT (144.9928 -37.8668),Port Phillip - St Kilda,0.0008941207488536507
Balaclava,7/72 Grosvenor St,2,u,410000.0,hockingstuart,3/12/2016,6.6,3183.0,2.0,1.0,2.0,0.0,-37.8731,144.9958,Southern Metropolitan,2952.0,POINT (144.9958 -37.8731),Port Phillip - St Kilda,0.0008941207488536507
Balaclava,3/88 Grosvenor St,1,u,280000.0,hockingstuart,7/05/2016,6.6,3183.0,1.0,1.0,1.0,0.0,-37.8733,144.997,Southern Metropolitan,2952.0,POINT (144.997 -37.8733),Port Phillip - St Kilda,0.0008941207488536507
Balaclava,1/34 Gourlay St,2,t,1015000.0,Gary,7/11/2016,6.6,3183.0,2.0,1.0,2.0,114.0,-37.8723,144.9961,Southern Metropolitan,2952.0,POINT (144.9961 -37.8723),Port Phillip - St Kilda,0.0008941207488536507
Balaclava,4/9 Gourlay St,2,u,502500.0,Buxton,15/10/2016,6.6,3183.0,2.0,1.0,1.0,0.0,-37.8725,144.9952,Southern Metropolitan,2952.0,POINT (144.9952 -37.8725),Port Phillip - St Kilda,0.0008941207488536507
Balaclava,1/22 Sycamore Gr,2,u,520000.0,Gary,15/10/2016,6.6,3183.0,2.0,1.0,0.0,0.0,-37.8742,144.9972,Southern Metropolitan,2952.0,POINT (144.9972 -37.8742),Port Phillip - St Kilda,0.0008941207488536507
Balaclava,6/23 Gourlay St,2,u,442000.0,Buxton,17/09/2016,6.6,3183.0,2.0,1.0,1.0,0.0,-37.8726,144.9962,Southern Metropolitan,2952.0,POINT (144.9962 -37.8726),Port Phillip - St Kilda,0.0008941207488536507
